{"USC00011084": {"id": "USC00011084", "lat": "31.0583", "lon": "-87.0550", "elev": "25.9", "state": "AL", "name": "BREWTON 3 SSE"}, "USC00012813": {"id": "USC00012813", "lat": "30.5467", "lon": "-87.8808", "elev": "7.0", "state": "AL", "name": "FAIRHOPE 2 NE"}, "USC00013160": {"id": "USC00013160", "lat": "32.8347", "lon": "-88.1342", "elev": "38.1", "state": "AL", "name": "GAINESVILLE LOCK"}, "USC00013511": {"id": "USC00013511", "lat": "32.6922", "lon": "-87.5761", "elev": "75.9", "state": "AL", "name": "GREENSBORO"}, "USC00013816": {"id": "USC00013816", "lat": "31.8814", "lon": "-86.2503", "elev": "132.0", "state": "AL", "name": "HIGHLAND HOME"}, "USC00017157": {"id": "USC00017157", "lat": "34.1736", "lon": "-86.8133", "elev": "243.8", "state": "AL", "name": "SAINT BERNARD"}, "USC00017304": {"id": "USC00017304", "lat": "34.6736", "lon": "-86.0536", "elev": "187.5", "state": "AL", "name": "SCOTTSBORO"}, "USC00017366": {"id": "USC00017366", "lat": "32.4111", "lon": "-87.0144", "elev": "44.8", "state": "AL", "name": "SELMA"}, "USC00018024": {"id": "USC00018024", "lat": "33.4164", "lon": "-86.1350", "elev": "136.6", "state": "AL", "name": "TALLADEGA"}, "USC00018178": {"id": "USC00018178", "lat": "31.9172", "lon": "-87.7347", "elev": "118.9", "state": "AL", "name": "THOMASVILLE"}, "USC00018323": {"id": "USC00018323", "lat": "31.8075", "lon": "-85.9722", "elev": "165.2", "state": "AL", "name": "TROY"}, "USC00018438": {"id": "USC00018438", "lat": "32.0142", "lon": "-85.7464", "elev": "134.1", "state": "AL", "name": "UNION SPRINGS 9 S"}, "USC00018469": {"id": "USC00018469", "lat": "34.5686", "lon": "-85.6064", "elev": "341.7", "state": "AL", "name": "VALLEY HEAD"}, "USC00020080": {"id": "USC00020080", "lat": "32.3697", "lon": "-112.8600", "elev": "533.7", "state": "AZ", "name": "AJO"}, "USC00021026": {"id": "USC00021026", "lat": "33.3761", "lon": "-112.5828", "elev": "271.3", "state": "AZ", "name": "BUCKEYE"}, "USC00021248": {"id": "USC00021248", "lat": "36.1533", "lon": "-109.5394", "elev": "1709.9", "state": "AZ", "name": "CANYON DE CHELLY"}, "USC00021514": {"id": "USC00021514", "lat": "33.2058", "lon": "-111.6819", "elev": "434.3", "state": "AZ", "name": "CHANDLER HEIGHTS"}, "USC00021614": {"id": "USC00021614", "lat": "34.3494", "lon": "-111.6981", "elev": "807.7", "state": "AZ", "name": "CHILDS"}, "USC00023160": {"id": "USC00023160", "lat": "35.2681", "lon": "-111.7428", "elev": "2239.4", "state": "AZ", "name": "FT VALLEY"}, "USC00023596": {"id": "USC00023596", "lat": "36.0528", "lon": "-112.1503", "elev": "2068.1", "state": "AZ", "name": "GRAND CANYON NP 2"}, "USC00024089": {"id": "USC00024089", "lat": "34.9094", "lon": "-110.1544", "elev": "1549.9", "state": "AZ", "name": "HOLBROOK"}, "USC00024645": {"id": "USC00024645", "lat": "35.2000", "lon": "-114.0167", "elev": "1078.7", "state": "AZ", "name": "KINGMAN #2"}, "USC00024849": {"id": "USC00024849", "lat": "36.8644", "lon": "-111.6022", "elev": "978.4", "state": "AZ", "name": "LEES FERRY"}, "USC00025512": {"id": "USC00025512", "lat": "33.4044", "lon": "-110.8700", "elev": "1085.1", "state": "AZ", "name": "MIAMI"}, "USC00026250": {"id": "USC00026250", "lat": "34.1547", "lon": "-114.2908", "elev": "128.0", "state": "AZ", "name": "PARKER"}, "USC00026353": {"id": "USC00026353", "lat": "31.9356", "lon": "-109.8378", "elev": "1325.9", "state": "AZ", "name": "PEARCE - SUNSITES"}, "USC00026796": {"id": "USC00026796", "lat": "34.5706", "lon": "-112.4322", "elev": "1586.5", "state": "AZ", "name": "PRESCOTT"}, "USC00027281": {"id": "USC00027281", "lat": "33.6731", "lon": "-111.1508", "elev": "672.1", "state": "AZ", "name": "ROOSEVELT 1 WNW"}, "USC00027370": {"id": "USC00027370", "lat": "33.0722", "lon": "-111.7661", "elev": "396.2", "state": "AZ", "name": "SACATON"}, "USC00027390": {"id": "USC00027390", "lat": "32.8150", "lon": "-109.6808", "elev": "900.4", "state": "AZ", "name": "SAFFORD AG CTR"}, "USC00027435": {"id": "USC00027435", "lat": "34.5172", "lon": "-109.4028", "elev": "1764.8", "state": "AZ", "name": "SAINT JOHNS"}, "USC00027716": {"id": "USC00027716", "lat": "35.3322", "lon": "-112.8797", "elev": "1600.2", "state": "AZ", "name": "SELIGMAN"}, "USC00028619": {"id": "USC00028619", "lat": "31.7119", "lon": "-110.0686", "elev": "1420.1", "state": "AZ", "name": "TOMBSTONE"}, "USC00028815": {"id": "USC00028815", "lat": "32.2292", "lon": "-110.9536", "elev": "742.2", "state": "AZ", "name": "TUCSON WFO"}, "USC00029271": {"id": "USC00029271", "lat": "33.8214", "lon": "-109.9839", "elev": "1575.8", "state": "AZ", "name": "WHITERIVER 1 SW"}, "USC00029287": {"id": "USC00029287", "lat": "33.9792", "lon": "-112.7403", "elev": "638.6", "state": "AZ", "name": "WICKENBURG"}, "USC00029359": {"id": "USC00029359", "lat": "35.2414", "lon": "-112.1928", "elev": "2105.9", "state": "AZ", "name": "WILLIAMS"}, "USC00029652": {"id": "USC00029652", "lat": "32.6114", "lon": "-114.6350", "elev": "58.2", "state": "AZ", "name": "YUMA CITRUS STN"}, "USC00030936": {"id": "USC00030936", "lat": "34.8822", "lon": "-91.2153", "elev": "56.4", "state": "AR", "name": "BRINKLEY"}, "USC00031596": {"id": "USC00031596", "lat": "35.1033", "lon": "-92.4903", "elev": "95.1", "state": "AR", "name": "CONWAY"}, "USC00031632": {"id": "USC00031632", "lat": "36.4197", "lon": "-90.5858", "elev": "91.4", "state": "AR", "name": "CORNING"}, "USC00032356": {"id": "USC00032356", "lat": "36.4164", "lon": "-93.7917", "elev": "432.8", "state": "AR", "name": "EUREKA SPRINGS 3 WNW"}, "USC00032444": {"id": "USC00032444", "lat": "36.1006", "lon": "-94.1744", "elev": "387.1", "state": "AR", "name": "FAYETTEVILLE EXP STN"}, "USC00032930": {"id": "USC00032930", "lat": "36.4261", "lon": "-94.4481", "elev": "384.0", "state": "AR", "name": "GRAVETTE"}, "USC00034572": {"id": "USC00034572", "lat": "36.4947", "lon": "-91.5350", "elev": "153.0", "state": "AR", "name": "MAMMOTH SPRING"}, "USC00034756": {"id": "USC00034756", "lat": "34.5978", "lon": "-94.2900", "elev": "351.1", "state": "AR", "name": "MENA"}, "USC00035186": {"id": "USC00035186", "lat": "35.6042", "lon": "-91.2744", "elev": "69.5", "state": "AR", "name": "NEWPORT"}, "USC00035512": {"id": "USC00035512", "lat": "35.5125", "lon": "-93.8683", "elev": "253.0", "state": "AR", "name": "OZARK 2"}, "USC00035754": {"id": "USC00035754", "lat": "34.2256", "lon": "-92.0186", "elev": "70.1", "state": "AR", "name": "PINE BLUFF"}, "USC00035820": {"id": "USC00035820", "lat": "36.2642", "lon": "-90.9683", "elev": "96.0", "state": "AR", "name": "POCAHONTAS 1"}, "USC00035908": {"id": "USC00035908", "lat": "33.8203", "lon": "-93.3878", "elev": "93.9", "state": "AR", "name": "PRESCOTT 2 NNW"}, "USC00036253": {"id": "USC00036253", "lat": "33.8103", "lon": "-91.2778", "elev": "45.7", "state": "AR", "name": "ROHWER 2 NNE"}, "USC00036928": {"id": "USC00036928", "lat": "35.3028", "lon": "-93.6369", "elev": "152.4", "state": "AR", "name": "SUBIACO"}, "USC00040693": {"id": "USC00040693", "lat": "37.8744", "lon": "-122.2606", "elev": "94.5", "state": "CA", "name": "BERKELEY"}, "USC00040924": {"id": "USC00040924", "lat": "33.6131", "lon": "-114.5972", "elev": "81.7", "state": "CA", "name": "BLYTHE"}, "USC00041048": {"id": "USC00041048", "lat": "32.9544", "lon": "-115.5581", "elev": "-30.5", "state": "CA", "name": "BRAWLEY 2 SW"}, "USC00041614": {"id": "USC00041614", "lat": "41.5300", "lon": "-120.1792", "elev": "1428.9", "state": "CA", "name": "CEDARVILLE"}, "USC00041715": {"id": "USC00041715", "lat": "39.6911", "lon": "-121.8211", "elev": "56.4", "state": "CA", "name": "CHICO UNIV FARM"}, "USC00041758": {"id": "USC00041758", "lat": "32.6400", "lon": "-117.0858", "elev": "17.1", "state": "CA", "name": "CHULA VISTA"}, "USC00041912": {"id": "USC00041912", "lat": "39.0911", "lon": "-120.9481", "elev": "725.4", "state": "CA", "name": "COLFAX"}, "USC00042239": {"id": "USC00042239", "lat": "32.9897", "lon": "-116.5872", "elev": "1414.3", "state": "CA", "name": "CUYAMACA"}, "USC00042294": {"id": "USC00042294", "lat": "38.5350", "lon": "-121.7761", "elev": "18.3", "state": "CA", "name": "DAVIS 2 WSW EXP FARM"}, "USC00042319": {"id": "USC00042319", "lat": "36.4622", "lon": "-116.8669", "elev": "-59.1", "state": "CA", "name": "DEATH VALLEY"}, "USC00042728": {"id": "USC00042728", "lat": "38.3306", "lon": "-120.6706", "elev": "217.9", "state": "CA", "name": "ELECTRA P H"}, "USC00042941": {"id": "USC00042941", "lat": "34.7050", "lon": "-118.4297", "elev": "932.7", "state": "CA", "name": "FAIRMONT"}, "USC00043161": {"id": "USC00043161", "lat": "39.5092", "lon": "-123.7567", "elev": "37.5", "state": "CA", "name": "FT BRAGG 5 N"}, "USC00043747": {"id": "USC00043747", "lat": "36.3158", "lon": "-119.6369", "elev": "72.2", "state": "CA", "name": "HANFORD 1 S"}, "USC00043761": {"id": "USC00043761", "lat": "41.8042", "lon": "-123.3758", "elev": "341.4", "state": "CA", "name": "HAPPY CAMP RS"}, "USC00043875": {"id": "USC00043875", "lat": "38.6214", "lon": "-122.8581", "elev": "53.0", "state": "CA", "name": "HEALDSBURG"}, "USC00044232": {"id": "USC00044232", "lat": "36.7981", "lon": "-118.2036", "elev": "1204.0", "state": "CA", "name": "INDEPENDENCE"}, "USC00044259": {"id": "USC00044259", "lat": "33.7086", "lon": "-116.2153", "elev": "-6.4", "state": "CA", "name": "INDIO FIRE STN"}, "USC00044713": {"id": "USC00044713", "lat": "39.3183", "lon": "-120.6392", "elev": "1571.5", "state": "CA", "name": "LAKE SPAULDING"}, "USC00044890": {"id": "USC00044890", "lat": "36.3817", "lon": "-119.0264", "elev": "156.4", "state": "CA", "name": "LEMON COVE"}, "USC00044997": {"id": "USC00044997", "lat": "37.6922", "lon": "-121.7692", "elev": "146.3", "state": "CA", "name": "LIVERMORE"}, "USC00045032": {"id": "USC00045032", "lat": "38.1061", "lon": "-121.2878", "elev": "12.2", "state": "CA", "name": "LODI"}, "USC00045385": {"id": "USC00045385", "lat": "39.1458", "lon": "-121.5853", "elev": "17.4", "state": "CA", "name": "MARYSVILLE"}, "USC00045532": {"id": "USC00045532", "lat": "37.2889", "lon": "-120.5158", "elev": "46.9", "state": "CA", "name": "MERCED"}, "USC00045983": {"id": "USC00045983", "lat": "41.3217", "lon": "-122.3172", "elev": "1102.5", "state": "CA", "name": "MT SHASTA"}, "USC00046074": {"id": "USC00046074", "lat": "38.2778", "lon": "-122.2647", "elev": "10.7", "state": "CA", "name": "NAPA STATE HOSPITAL"}, "USC00046175": {"id": "USC00046175", "lat": "33.6031", "lon": "-117.8836", "elev": "3.0", "state": "CA", "name": "NEWPORT BEACH HARBOR"}, "USC00046399": {"id": "USC00046399", "lat": "34.4478", "lon": "-119.2275", "elev": "227.1", "state": "CA", "name": "OJAI"}, "USC00046506": {"id": "USC00046506", "lat": "39.7458", "lon": "-122.1997", "elev": "77.4", "state": "CA", "name": "ORLAND"}, "USC00046508": {"id": "USC00046508", "lat": "41.3089", "lon": "-123.5317", "elev": "122.8", "state": "CA", "name": "ORLEANS"}, "USC00046719": {"id": "USC00046719", "lat": "34.1483", "lon": "-118.1447", "elev": "263.3", "state": "CA", "name": "PASADENA"}, "USC00046730": {"id": "USC00046730", "lat": "35.6278", "lon": "-120.6856", "elev": "222.5", "state": "CA", "name": "PASO ROBLES"}, "USC00046826": {"id": "USC00046826", "lat": "38.2578", "lon": "-122.6078", "elev": "6.1", "state": "CA", "name": "PETALUMA AP"}, "USC00047195": {"id": "USC00047195", "lat": "39.9367", "lon": "-120.9475", "elev": "1042.4", "state": "CA", "name": "QUINCY"}, "USC00047306": {"id": "USC00047306", "lat": "34.0369", "lon": "-117.1947", "elev": "429.8", "state": "CA", "name": "REDLANDS"}, "USC00047851": {"id": "USC00047851", "lat": "35.3056", "lon": "-120.6619", "elev": "93.9", "state": "CA", "name": "SAN LUIS OBISPO POLY"}, "USC00047902": {"id": "USC00047902", "lat": "34.4167", "lon": "-119.6844", "elev": "4.9", "state": "CA", "name": "SANTA BARBARA"}, "USC00047916": {"id": "USC00047916", "lat": "36.9878", "lon": "-121.9994", "elev": "21.3", "state": "CA", "name": "SANTA CRUZ"}, "USC00047965": {"id": "USC00047965", "lat": "38.4558", "lon": "-122.7133", "elev": "50.6", "state": "CA", "name": "SANTA ROSA"}, "USC00048702": {"id": "USC00048702", "lat": "40.4167", "lon": "-120.6631", "elev": "1283.8", "state": "CA", "name": "SUSANVILLE 2SW"}, "USC00048758": {"id": "USC00048758", "lat": "39.1678", "lon": "-120.1428", "elev": "1898.9", "state": "CA", "name": "TAHOE CITY"}, "USC00048839": {"id": "USC00048839", "lat": "35.0233", "lon": "-118.7497", "elev": "434.3", "state": "CA", "name": "TEJON RANCHO"}, "USC00049087": {"id": "USC00049087", "lat": "33.7025", "lon": "-117.7539", "elev": "71.6", "state": "CA", "name": "TUSTIN IRVINE RCH"}, "USC00049122": {"id": "USC00049122", "lat": "39.1467", "lon": "-123.2103", "elev": "193.9", "state": "CA", "name": "UKIAH"}, "USC00049200": {"id": "USC00049200", "lat": "38.3956", "lon": "-121.9608", "elev": "33.5", "state": "CA", "name": "VACAVILLE"}, "USC00049452": {"id": "USC00049452", "lat": "35.5892", "lon": "-119.3519", "elev": "88.7", "state": "CA", "name": "WASCO"}, "USC00049490": {"id": "USC00049490", "lat": "40.7367", "lon": "-122.9403", "elev": "627.3", "state": "CA", "name": "WEAVERVILLE"}, "USC00049699": {"id": "USC00049699", "lat": "39.5231", "lon": "-122.3047", "elev": "71.3", "state": "CA", "name": "WILLOWS 6 W"}, "USC00049855": {"id": "USC00049855", "lat": "37.7503", "lon": "-119.5897", "elev": "1224.7", "state": "CA", "name": "YOSEMITE PARK HQ"}, "USC00049866": {"id": "USC00049866", "lat": "41.7036", "lon": "-122.6408", "elev": "800.1", "state": "CA", "name": "YREKA"}, "USC00050848": {"id": "USC00050848", "lat": "39.9919", "lon": "-105.2667", "elev": "1671.5", "state": "CO", "name": "BOULDER"}, "USC00051294": {"id": "USC00051294", "lat": "38.4600", "lon": "-105.2256", "elev": "1639.2", "state": "CO", "name": "CANON CITY"}, "USC00051528": {"id": "USC00051528", "lat": "39.2203", "lon": "-105.2783", "elev": "2097.0", "state": "CO", "name": "CHEESMAN"}, "USC00051564": {"id": "USC00051564", "lat": "38.8222", "lon": "-102.3503", "elev": "1309.1", "state": "CO", "name": "CHEYENNE WELLS"}, "USC00051741": {"id": "USC00051741", "lat": "39.2425", "lon": "-107.9631", "elev": "1822.7", "state": "CO", "name": "COLLBRAN"}, "USC00052184": {"id": "USC00052184", "lat": "37.6911", "lon": "-106.3078", "elev": "2391.2", "state": "CO", "name": "DEL NORTE 3ENE"}, "USC00052281": {"id": "USC00052281", "lat": "39.6261", "lon": "-106.0353", "elev": "2763.0", "state": "CO", "name": "DILLON 1 E"}, "USC00052446": {"id": "USC00052446", "lat": "38.4758", "lon": "-102.7769", "elev": "1283.8", "state": "CO", "name": "EADS"}, "USC00053005": {"id": "USC00053005", "lat": "40.5764", "lon": "-105.0858", "elev": "1525.2", "state": "CO", "name": "FT COLLINS"}, "USC00053038": {"id": "USC00053038", "lat": "40.2569", "lon": "-103.8700", "elev": "1333.8", "state": "CO", "name": "FT MORGAN"}, "USC00053146": {"id": "USC00053146", "lat": "39.1444", "lon": "-108.7281", "elev": "1371.0", "state": "CO", "name": "FRUITA"}, "USC00053662": {"id": "USC00053662", "lat": "38.5253", "lon": "-106.9672", "elev": "2323.2", "state": "CO", "name": "GUNNISON 3SW"}, "USC00053951": {"id": "USC00053951", "lat": "37.7494", "lon": "-107.0950", "elev": "2727.7", "state": "CO", "name": "HERMIT 8 SE"}, "USC00054076": {"id": "USC00054076", "lat": "38.0517", "lon": "-102.1317", "elev": "1036.6", "state": "CO", "name": "HOLLY"}, "USC00054770": {"id": "USC00054770", "lat": "38.0936", "lon": "-102.6306", "elev": "1105.5", "state": "CO", "name": "LAMAR"}, "USC00054834": {"id": "USC00054834", "lat": "38.0636", "lon": "-103.2153", "elev": "1185.7", "state": "CO", "name": "LAS ANIMAS"}, "USC00055322": {"id": "USC00055322", "lat": "37.1742", "lon": "-105.9392", "elev": "2343.9", "state": "CO", "name": "MANASSA"}, "USC00055722": {"id": "USC00055722", "lat": "38.4858", "lon": "-107.8792", "elev": "1764.5", "state": "CO", "name": "MONTROSE #2"}, "USC00057167": {"id": "USC00057167", "lat": "38.0383", "lon": "-103.6947", "elev": "1271.0", "state": "CO", "name": "ROCKY FORD 2 SE"}, "USC00057337": {"id": "USC00057337", "lat": "38.0858", "lon": "-106.1444", "elev": "2347.3", "state": "CO", "name": "SAGUACHE"}, "USC00057936": {"id": "USC00057936", "lat": "40.4883", "lon": "-106.8233", "elev": "2092.8", "state": "CO", "name": "STEAMBOAT SPRINGS"}, "USC00058204": {"id": "USC00058204", "lat": "37.9492", "lon": "-107.8736", "elev": "2635.3", "state": "CO", "name": "TELLURIDE 4WNW"}, "USC00058429": {"id": "USC00058429", "lat": "37.1786", "lon": "-104.4869", "elev": "1837.9", "state": "CO", "name": "TRINIDAD"}, "USC00059243": {"id": "USC00059243", "lat": "40.0819", "lon": "-102.2069", "elev": "1083.0", "state": "CO", "name": "WRAY"}, "USC00062658": {"id": "USC00062658", "lat": "41.9500", "lon": "-73.3667", "elev": "167.6", "state": "CT", "name": "FALLS VILLAGE"}, "USC00063207": {"id": "USC00063207", "lat": "41.3511", "lon": "-72.0389", "elev": "12.2", "state": "CT", "name": "GROTON"}, "USC00067970": {"id": "USC00067970", "lat": "41.1247", "lon": "-73.5475", "elev": "57.9", "state": "CT", "name": "STAMFORD 5 N"}, "USC00068138": {"id": "USC00068138", "lat": "41.7950", "lon": "-72.2286", "elev": "202.7", "state": "CT", "name": "STORRS"}, "USC00072730": {"id": "USC00072730", "lat": "39.1467", "lon": "-75.5056", "elev": "9.1", "state": "DE", "name": "DOVER"}, "USC00073595": {"id": "USC00073595", "lat": "38.8161", "lon": "-75.5761", "elev": "13.7", "state": "DE", "name": "GREENWOOD 2NE"}, "USC00075915": {"id": "USC00075915", "lat": "38.8983", "lon": "-75.4250", "elev": "10.7", "state": "DE", "name": "MILFORD 2 SE"}, "USC00076410": {"id": "USC00076410", "lat": "39.6694", "lon": "-75.7514", "elev": "27.4", "state": "DE", "name": "NEWARK UNIV FARM"}, "USC00079605": {"id": "USC00079605", "lat": "39.7739", "lon": "-75.5414", "elev": "82.3", "state": "DE", "name": "WILMINGTON PORTER RSCH"}, "USC00080211": {"id": "USC00080211", "lat": "29.7258", "lon": "-85.0206", "elev": "6.1", "state": "FL", "name": "APALACHICOLA  AIRPORT"}, "USC00080228": {"id": "USC00080228", "lat": "27.2178", "lon": "-81.8742", "elev": "7.6", "state": "FL", "name": "ARCADIA"}, "USC00080478": {"id": "USC00080478", "lat": "27.8861", "lon": "-81.8325", "elev": "33.8", "state": "FL", "name": "BARTOW 1SE"}, "USC00080611": {"id": "USC00080611", "lat": "26.6928", "lon": "-80.6711", "elev": "6.1", "state": "FL", "name": "BELLE GLADE"}, "USC00082220": {"id": "USC00082220", "lat": "30.7244", "lon": "-86.0939", "elev": "74.7", "state": "FL", "name": "DE FUNIAK SPRINGS 1 E"}, "USC00082850": {"id": "USC00082850", "lat": "25.8489", "lon": "-81.3897", "elev": "1.5", "state": "FL", "name": "EVERGLADES"}, "USC00082915": {"id": "USC00082915", "lat": "29.7550", "lon": "-81.5389", "elev": "1.5", "state": "FL", "name": "FEDERAL PT"}, "USC00082944": {"id": "USC00082944", "lat": "30.6669", "lon": "-81.4525", "elev": "14.9", "state": "FL", "name": "FERNANDINA BEACH"}, "USC00083163": {"id": "USC00083163", "lat": "26.1019", "lon": "-80.2011", "elev": "4.9", "state": "FL", "name": "FT LAUDERDALE"}, "USC00083207": {"id": "USC00083207", "lat": "27.4419", "lon": "-80.3508", "elev": "7.6", "state": "FL", "name": "FT PIERCE"}, "USC00084289": {"id": "USC00084289", "lat": "28.8028", "lon": "-82.3128", "elev": "17.7", "state": "FL", "name": "INVERNESS 3 SE"}, "USC00084731": {"id": "USC00084731", "lat": "30.1853", "lon": "-82.5942", "elev": "59.4", "state": "FL", "name": "LAKE CITY 2 E"}, "USC00085275": {"id": "USC00085275", "lat": "30.4653", "lon": "-83.4022", "elev": "36.6", "state": "FL", "name": "MADISON"}, "USC00086414": {"id": "USC00086414", "lat": "29.1639", "lon": "-82.0778", "elev": "22.9", "state": "FL", "name": "OCALA"}, "USC00087020": {"id": "USC00087020", "lat": "25.5819", "lon": "-80.4361", "elev": "3.0", "state": "FL", "name": "PERRINE 4W"}, "USC00087851": {"id": "USC00087851", "lat": "28.3378", "lon": "-82.2600", "elev": "57.9", "state": "FL", "name": "SAINT LEO"}, "USC00088824": {"id": "USC00088824", "lat": "28.1522", "lon": "-82.7539", "elev": "2.4", "state": "FL", "name": "TARPON SPGS SEWAGE PL"}, "USC00088942": {"id": "USC00088942", "lat": "28.6242", "lon": "-80.8169", "elev": "4.9", "state": "FL", "name": "TITUSVILLE"}, "USC00090140": {"id": "USC00090140", "lat": "31.5339", "lon": "-84.1489", "elev": "54.9", "state": "GA", "name": "ALBANY 3 SE"}, "USC00090586": {"id": "USC00090586", "lat": "30.8228", "lon": "-84.6175", "elev": "57.9", "state": "GA", "name": "BAINBRIDGE INTL PAPER"}, "USC00091340": {"id": "USC00091340", "lat": "31.1681", "lon": "-81.5022", "elev": "4.0", "state": "GA", "name": "BRUNSWICK"}, "USC00091500": {"id": "USC00091500", "lat": "31.1903", "lon": "-84.2036", "elev": "53.3", "state": "GA", "name": "CAMILLA 3SE"}, "USC00092318": {"id": "USC00092318", "lat": "33.5972", "lon": "-83.8436", "elev": "234.4", "state": "GA", "name": "COVINGTON"}, "USC00092475": {"id": "USC00092475", "lat": "34.5069", "lon": "-84.0208", "elev": "445.0", "state": "GA", "name": "DAHLONEGA 4WSW"}, "USC00092966": {"id": "USC00092966", "lat": "32.2003", "lon": "-83.2058", "elev": "121.9", "state": "GA", "name": "EASTMAN 1 W"}, "USC00093621": {"id": "USC00093621", "lat": "34.3006", "lon": "-83.8600", "elev": "356.6", "state": "GA", "name": "GAINESVILLE"}, "USC00093754": {"id": "USC00093754", "lat": "31.9881", "lon": "-81.9522", "elev": "61.0", "state": "GA", "name": "GLENNVILLE 3NW"}, "USC00094170": {"id": "USC00094170", "lat": "32.2842", "lon": "-83.4681", "elev": "74.7", "state": "GA", "name": "HAWKINSVILLE"}, "USC00095874": {"id": "USC00095874", "lat": "33.0831", "lon": "-83.2497", "elev": "112.2", "state": "GA", "name": "MILLEDGEVILLE"}, "USC00095882": {"id": "USC00095882", "lat": "32.8703", "lon": "-81.9672", "elev": "59.4", "state": "GA", "name": "MILLEN 4 N"}, "USC00096335": {"id": "USC00096335", "lat": "33.3997", "lon": "-84.9150", "elev": "242.3", "state": "GA", "name": "NEWNAN 7 WNW"}, "USC00097276": {"id": "USC00097276", "lat": "30.7836", "lon": "-83.5692", "elev": "56.4", "state": "GA", "name": "QUITMAN 2 NW"}, "USC00097600": {"id": "USC00097600", "lat": "34.2414", "lon": "-85.1583", "elev": "208.8", "state": "GA", "name": "ROME"}, "USC00098535": {"id": "USC00098535", "lat": "32.6864", "lon": "-84.5208", "elev": "189.0", "state": "GA", "name": "TALBOTTON"}, "USC00098703": {"id": "USC00098703", "lat": "31.4461", "lon": "-83.4767", "elev": "115.8", "state": "GA", "name": "TIFTON"}, "USC00098740": {"id": "USC00098740", "lat": "34.5786", "lon": "-83.3319", "elev": "308.5", "state": "GA", "name": "TOCCOA"}, "USC00099141": {"id": "USC00099141", "lat": "33.4028", "lon": "-82.6222", "elev": "149.4", "state": "GA", "name": "WARRENTON"}, "USC00099157": {"id": "USC00099157", "lat": "33.7264", "lon": "-82.7058", "elev": "189.0", "state": "GA", "name": "WASHINGTON 2 ESE"}, "USC00099186": {"id": "USC00099186", "lat": "31.2514", "lon": "-82.3128", "elev": "44.2", "state": "GA", "name": "WAYCROSS 4 NE"}, "USC00099291": {"id": "USC00099291", "lat": "32.8861", "lon": "-85.1839", "elev": "175.3", "state": "GA", "name": "W PT"}, "USC00100010": {"id": "USC00100010", "lat": "42.9536", "lon": "-112.8253", "elev": "1342.6", "state": "ID", "name": "ABERDEEN EXP STN"}, "USC00100448": {"id": "USC00100448", "lat": "43.5936", "lon": "-115.9236", "elev": "986.0", "state": "ID", "name": "ARROWROCK DAM"}, "USC00100470": {"id": "USC00100470", "lat": "44.0708", "lon": "-111.4564", "elev": "1588.6", "state": "ID", "name": "ASHTON 1N"}, "USC00100803": {"id": "USC00100803", "lat": "42.3353", "lon": "-111.3850", "elev": "1817.8", "state": "ID", "name": "BERN"}, "USC00101408": {"id": "USC00101408", "lat": "44.5733", "lon": "-116.6753", "elev": "807.7", "state": "ID", "name": "CAMBRIDGE"}, "USC00101956": {"id": "USC00101956", "lat": "47.6822", "lon": "-116.7967", "elev": "650.1", "state": "ID", "name": "COEUR D'ALENE"}, "USC00102845": {"id": "USC00102845", "lat": "46.5022", "lon": "-116.3217", "elev": "303.3", "state": "ID", "name": "DWORSHAK FISH HATCHERY"}, "USC00103143": {"id": "USC00103143", "lat": "46.0931", "lon": "-115.5356", "elev": "475.5", "state": "ID", "name": "FENN RS"}, "USC00103631": {"id": "USC00103631", "lat": "42.9403", "lon": "-115.3231", "elev": "751.6", "state": "ID", "name": "GLENNS FERRY"}, "USC00103732": {"id": "USC00103732", "lat": "42.5872", "lon": "-111.7275", "elev": "1691.6", "state": "ID", "name": "GRACE"}, "USC00104140": {"id": "USC00104140", "lat": "42.5972", "lon": "-114.1378", "elev": "1237.5", "state": "ID", "name": "HAZELTON"}, "USC00104295": {"id": "USC00104295", "lat": "42.3528", "lon": "-114.5739", "elev": "1379.2", "state": "ID", "name": "HOLLISTER"}, "USC00104670": {"id": "USC00104670", "lat": "42.7325", "lon": "-114.5192", "elev": "1140.0", "state": "ID", "name": "JEROME"}, "USC00104831": {"id": "USC00104831", "lat": "47.5339", "lon": "-116.1222", "elev": "724.5", "state": "ID", "name": "KELLOGG"}, "USC00104845": {"id": "USC00104845", "lat": "43.6842", "lon": "-114.3603", "elev": "1795.3", "state": "ID", "name": "KETCHUM RS"}, "USC00105275": {"id": "USC00105275", "lat": "42.1231", "lon": "-111.3133", "elev": "1809.0", "state": "ID", "name": "LIFTON PUMPING STN"}, "USC00105462": {"id": "USC00105462", "lat": "43.9178", "lon": "-113.6153", "elev": "1797.4", "state": "ID", "name": "MACKAY LOST RVR RS"}, "USC00105685": {"id": "USC00105685", "lat": "44.5664", "lon": "-113.8953", "elev": "1539.2", "state": "ID", "name": "MAY 2SSE"}, "USC00106152": {"id": "USC00106152", "lat": "46.7281", "lon": "-116.9558", "elev": "810.8", "state": "ID", "name": "MOSCOW U OF I"}, "USC00106305": {"id": "USC00106305", "lat": "43.6039", "lon": "-116.5753", "elev": "752.9", "state": "ID", "name": "NAMPA SUGAR FACTORY"}, "USC00106388": {"id": "USC00106388", "lat": "44.9714", "lon": "-116.2933", "elev": "1177.1", "state": "ID", "name": "NEW MEADOWS RS"}, "USC00106542": {"id": "USC00106542", "lat": "42.2342", "lon": "-113.8981", "elev": "1389.6", "state": "ID", "name": "OAKLEY"}, "USC00106891": {"id": "USC00106891", "lat": "44.0764", "lon": "-116.9311", "elev": "655.3", "state": "ID", "name": "PAYETTE"}, "USC00107264": {"id": "USC00107264", "lat": "48.9994", "lon": "-116.4992", "elev": "548.3", "state": "ID", "name": "PORTHILL 1 SW"}, "USC00107386": {"id": "USC00107386", "lat": "48.3511", "lon": "-116.8353", "elev": "722.7", "state": "ID", "name": "PRIEST RVR EXP STN"}, "USC00108080": {"id": "USC00108080", "lat": "45.1731", "lon": "-113.8856", "elev": "1204.9", "state": "ID", "name": "SALMON-KSRA"}, "USC00108137": {"id": "USC00108137", "lat": "48.2942", "lon": "-116.5628", "elev": "648.0", "state": "ID", "name": "SANDPOINT EXP STN"}, "USC00110072": {"id": "USC00110072", "lat": "41.1978", "lon": "-90.7447", "elev": "222.5", "state": "IL", "name": "ALEDO"}, "USC00110187": {"id": "USC00110187", "lat": "37.4814", "lon": "-89.2344", "elev": "195.1", "state": "IL", "name": "ANNA 2 NNE"}, "USC00110338": {"id": "USC00110338", "lat": "41.7803", "lon": "-88.3092", "elev": "201.2", "state": "IL", "name": "AURORA"}, "USC00111280": {"id": "USC00111280", "lat": "39.2883", "lon": "-89.8703", "elev": "189.3", "state": "IL", "name": "CARLINVILLE"}, "USC00111436": {"id": "USC00111436", "lat": "39.4761", "lon": "-88.1653", "elev": "213.4", "state": "IL", "name": "CHARLESTON"}, "USC00112140": {"id": "USC00112140", "lat": "40.1392", "lon": "-87.6478", "elev": "169.2", "state": "IL", "name": "DANVILLE"}, "USC00112193": {"id": "USC00112193", "lat": "39.8289", "lon": "-88.9506", "elev": "194.8", "state": "IL", "name": "DECATUR WTP"}, "USC00112348": {"id": "USC00112348", "lat": "41.8350", "lon": "-89.5136", "elev": "201.2", "state": "IL", "name": "DIXON 1W"}, "USC00112483": {"id": "USC00112483", "lat": "37.9878", "lon": "-89.1931", "elev": "128.0", "state": "IL", "name": "DU QUOIN 4 SE"}, "USC00113335": {"id": "USC00113335", "lat": "41.1739", "lon": "-90.0350", "elev": "246.9", "state": "IL", "name": "GALVA"}, "USC00113879": {"id": "USC00113879", "lat": "37.7408", "lon": "-88.5244", "elev": "111.3", "state": "IL", "name": "HARRISBURG"}, "USC00114108": {"id": "USC00114108", "lat": "39.1611", "lon": "-89.4919", "elev": "192.0", "state": "IL", "name": "HILLSBORO"}, "USC00114198": {"id": "USC00114198", "lat": "40.4664", "lon": "-87.6850", "elev": "216.4", "state": "IL", "name": "HOOPESTON"}, "USC00114442": {"id": "USC00114442", "lat": "39.7347", "lon": "-90.1978", "elev": "185.9", "state": "IL", "name": "JACKSONVILLE 2E"}, "USC00114823": {"id": "USC00114823", "lat": "40.5839", "lon": "-90.9686", "elev": "210.3", "state": "IL", "name": "LA HARPE"}, "USC00115079": {"id": "USC00115079", "lat": "40.1519", "lon": "-89.3386", "elev": "177.7", "state": "IL", "name": "LINCOLN"}, "USC00115326": {"id": "USC00115326", "lat": "42.2636", "lon": "-88.6078", "elev": "248.4", "state": "IL", "name": "MARENGO"}, "USC00115515": {"id": "USC00115515", "lat": "38.0844", "lon": "-88.5425", "elev": "135.9", "state": "IL", "name": "MCLEANSBORO"}, "USC00115712": {"id": "USC00115712", "lat": "40.9125", "lon": "-89.0339", "elev": "228.6", "state": "IL", "name": "MINONK"}, "USC00115768": {"id": "USC00115768", "lat": "40.9442", "lon": "-90.6381", "elev": "219.5", "state": "IL", "name": "MONMOUTH"}, "USC00115833": {"id": "USC00115833", "lat": "41.7944", "lon": "-89.9681", "elev": "192.6", "state": "IL", "name": "MORRISON"}, "USC00115901": {"id": "USC00115901", "lat": "42.0981", "lon": "-89.9842", "elev": "195.1", "state": "IL", "name": "MT CARROLL"}, "USC00115943": {"id": "USC00115943", "lat": "38.3483", "lon": "-88.8533", "elev": "149.4", "state": "IL", "name": "MT VERNON 3 NE"}, "USC00116446": {"id": "USC00116446", "lat": "38.7003", "lon": "-88.0817", "elev": "139.9", "state": "IL", "name": "OLNEY 2S"}, "USC00116526": {"id": "USC00116526", "lat": "41.3283", "lon": "-88.9106", "elev": "160.0", "state": "IL", "name": "OTTAWA 5SW"}, "USC00116558": {"id": "USC00116558", "lat": "39.0064", "lon": "-87.6236", "elev": "137.2", "state": "IL", "name": "PALESTINE"}, "USC00116579": {"id": "USC00116579", "lat": "39.3686", "lon": "-89.0867", "elev": "198.1", "state": "IL", "name": "PANA"}, "USC00116610": {"id": "USC00116610", "lat": "39.6186", "lon": "-87.6672", "elev": "197.8", "state": "IL", "name": "PARIS STP"}, "USC00116738": {"id": "USC00116738", "lat": "39.8058", "lon": "-90.8236", "elev": "198.1", "state": "IL", "name": "PERRY 6 NW"}, "USC00116910": {"id": "USC00116910", "lat": "40.8778", "lon": "-88.6364", "elev": "198.1", "state": "IL", "name": "PONTIAC"}, "USC00117551": {"id": "USC00117551", "lat": "40.1275", "lon": "-90.5592", "elev": "205.1", "state": "IL", "name": "RUSHVILLE"}, "USC00118147": {"id": "USC00118147", "lat": "38.1167", "lon": "-89.7167", "elev": "163.1", "state": "IL", "name": "SPARTA 1 W"}, "USC00118740": {"id": "USC00118740", "lat": "40.0839", "lon": "-88.2403", "elev": "219.8", "state": "IL", "name": "CHAMPAIGN 3S"}, "USC00118916": {"id": "USC00118916", "lat": "41.5603", "lon": "-89.6025", "elev": "204.5", "state": "IL", "name": "WALNUT"}, "USC00119241": {"id": "USC00119241", "lat": "39.4408", "lon": "-90.3789", "elev": "176.8", "state": "IL", "name": "WHITE HALL 1 E"}, "USC00119354": {"id": "USC00119354", "lat": "39.4458", "lon": "-88.5961", "elev": "210.3", "state": "IL", "name": "WINDSOR"}, "USC00120177": {"id": "USC00120177", "lat": "40.1117", "lon": "-85.7164", "elev": "256.3", "state": "IN", "name": "ANDERSON SEWAGE PLT"}, "USC00120200": {"id": "USC00120200", "lat": "41.6639", "lon": "-85.0183", "elev": "310.9", "state": "IN", "name": "ANGOLA"}, "USC00120676": {"id": "USC00120676", "lat": "40.6683", "lon": "-84.9300", "elev": "255.7", "state": "IN", "name": "BERNE WWTP"}, "USC00120784": {"id": "USC00120784", "lat": "39.1742", "lon": "-86.5214", "elev": "253.0", "state": "IN", "name": "BLOOMINGTON INDIANA UNIV"}, "USC00121030": {"id": "USC00121030", "lat": "39.4239", "lon": "-85.0144", "elev": "192.0", "state": "IN", "name": "BROOKVILLE"}, "USC00121229": {"id": "USC00121229", "lat": "39.8667", "lon": "-85.1833", "elev": "304.8", "state": "IN", "name": "CAMBRIDGE CITY 3 N"}, "USC00121425": {"id": "USC00121425", "lat": "38.6500", "lon": "-85.7000", "elev": "167.6", "state": "IN", "name": "CHARLESTOWN 5 NNW"}, "USC00121747": {"id": "USC00121747", "lat": "39.1661", "lon": "-85.9228", "elev": "185.6", "state": "IN", "name": "COLUMBUS"}, "USC00121873": {"id": "USC00121873", "lat": "40.0028", "lon": "-86.8011", "elev": "254.8", "state": "IN", "name": "CRAWFORDSVILLE 6 SE"}, "USC00122149": {"id": "USC00122149", "lat": "40.6150", "lon": "-86.6661", "elev": "169.5", "state": "IN", "name": "DELPHI 2 N"}, "USC00123418": {"id": "USC00123418", "lat": "41.5575", "lon": "-85.8825", "elev": "266.7", "state": "IN", "name": "GOSHEN 3SW"}, "USC00123513": {"id": "USC00123513", "lat": "39.6439", "lon": "-86.8767", "elev": "224.0", "state": "IN", "name": "GREENCASTLE 1 W"}, "USC00123527": {"id": "USC00123527", "lat": "39.7858", "lon": "-85.7611", "elev": "264.9", "state": "IN", "name": "GREENFIELD"}, "USC00124008": {"id": "USC00124008", "lat": "41.5422", "lon": "-87.2881", "elev": "195.1", "state": "IN", "name": "HOBART 2 WNW"}, "USC00124181": {"id": "USC00124181", "lat": "40.8556", "lon": "-85.4981", "elev": "221.0", "state": "IN", "name": "HUNTINGTON"}, "USC00124837": {"id": "USC00124837", "lat": "41.6117", "lon": "-86.7297", "elev": "246.6", "state": "IN", "name": "LAPORTE"}, "USC00125237": {"id": "USC00125237", "lat": "38.7369", "lon": "-85.3942", "elev": "140.2", "state": "IN", "name": "MADISON SEWAGE PLT"}, "USC00125337": {"id": "USC00125337", "lat": "40.5800", "lon": "-85.6586", "elev": "240.8", "state": "IN", "name": "MARION 2 N"}, "USC00126001": {"id": "USC00126001", "lat": "37.9286", "lon": "-87.8956", "elev": "108.8", "state": "IN", "name": "MT VERNON"}, "USC00126580": {"id": "USC00126580", "lat": "38.8878", "lon": "-86.5519", "elev": "198.7", "state": "IN", "name": "OOLITIC PURDUE EX FM"}, "USC00126705": {"id": "USC00126705", "lat": "38.5556", "lon": "-86.4858", "elev": "170.7", "state": "IN", "name": "PAOLI"}, "USC00127125": {"id": "USC00127125", "lat": "38.3567", "lon": "-87.5906", "elev": "146.3", "state": "IN", "name": "PRINCETON 1 W"}, "USC00127298": {"id": "USC00127298", "lat": "40.9239", "lon": "-87.1753", "elev": "192.0", "state": "IN", "name": "RENSSELAER"}, "USC00127482": {"id": "USC00127482", "lat": "41.0664", "lon": "-86.2097", "elev": "231.6", "state": "IN", "name": "ROCHESTER"}, "USC00127522": {"id": "USC00127522", "lat": "39.7594", "lon": "-87.2269", "elev": "210.0", "state": "IN", "name": "ROCKVILLE"}, "USC00127646": {"id": "USC00127646", "lat": "39.6042", "lon": "-85.4533", "elev": "289.0", "state": "IN", "name": "RUSHVILLE"}, "USC00127755": {"id": "USC00127755", "lat": "38.6158", "lon": "-86.0856", "elev": "239.3", "state": "IN", "name": "SALEM"}, "USC00127875": {"id": "USC00127875", "lat": "38.6886", "lon": "-85.7850", "elev": "173.7", "state": "IN", "name": "SCOTTSBURG"}, "USC00127935": {"id": "USC00127935", "lat": "38.9822", "lon": "-85.8989", "elev": "173.7", "state": "IN", "name": "SEYMOUR 2 N"}, "USC00128036": {"id": "USC00128036", "lat": "38.5528", "lon": "-86.7944", "elev": "145.4", "state": "IN", "name": "SHOALS 8 S"}, "USC00129080": {"id": "USC00129080", "lat": "38.7436", "lon": "-85.0761", "elev": "150.9", "state": "IN", "name": "VEVAY"}, "USC00129113": {"id": "USC00129113", "lat": "38.7386", "lon": "-87.4878", "elev": "137.8", "state": "IN", "name": "VINCENNES 5 NE"}, "USC00129253": {"id": "USC00129253", "lat": "38.6489", "lon": "-87.1989", "elev": "146.9", "state": "IN", "name": "WASHINGTON 1 W"}, "USC00129511": {"id": "USC00129511", "lat": "41.1947", "lon": "-87.0578", "elev": "202.7", "state": "IN", "name": "WHEATFIELD"}, "USC00129557": {"id": "USC00129557", "lat": "39.9961", "lon": "-86.3542", "elev": "286.8", "state": "IN", "name": "WHITESTOWN"}, "USC00129670": {"id": "USC00129670", "lat": "41.0267", "lon": "-86.5867", "elev": "210.3", "state": "IN", "name": "WINAMAC 2SSE"}, "USC00130112": {"id": "USC00130112", "lat": "41.0656", "lon": "-92.7867", "elev": "268.2", "state": "IA", "name": "ALBIA 3 NNE"}, "USC00130133": {"id": "USC00130133", "lat": "43.0664", "lon": "-94.2222", "elev": "370.0", "state": "IA", "name": "ALGONA"}, "USC00130600": {"id": "USC00130600", "lat": "41.8814", "lon": "-92.2764", "elev": "246.9", "state": "IA", "name": "BELLE PLAINE"}, "USC00131402": {"id": "USC00131402", "lat": "43.0603", "lon": "-92.6717", "elev": "302.7", "state": "IA", "name": "CHARLES CITY"}, "USC00131533": {"id": "USC00131533", "lat": "40.7244", "lon": "-95.0192", "elev": "298.7", "state": "IA", "name": "CLARINDA"}, "USC00131635": {"id": "USC00131635", "lat": "41.7947", "lon": "-90.2639", "elev": "178.3", "state": "IA", "name": "CLINTON #1"}, "USC00132724": {"id": "USC00132724", "lat": "43.4036", "lon": "-94.7472", "elev": "402.3", "state": "IA", "name": "ESTHERVILLE 4E"}, "USC00132789": {"id": "USC00132789", "lat": "41.0211", "lon": "-91.9553", "elev": "225.6", "state": "IA", "name": "FAIRFIELD"}, "USC00132864": {"id": "USC00132864", "lat": "42.8825", "lon": "-91.8303", "elev": "349.0", "state": "IA", "name": "FAYETTE"}, "USC00132977": {"id": "USC00132977", "lat": "43.2844", "lon": "-93.6306", "elev": "390.1", "state": "IA", "name": "FOREST CITY 2 NNE"}, "USC00132999": {"id": "USC00132999", "lat": "42.5836", "lon": "-94.2006", "elev": "339.9", "state": "IA", "name": "FT DODGE 5NNW"}, "USC00134063": {"id": "USC00134063", "lat": "41.3664", "lon": "-93.6481", "elev": "281.6", "state": "IA", "name": "INDIANOLA 2W"}, "USC00134142": {"id": "USC00134142", "lat": "42.5189", "lon": "-93.2536", "elev": "321.6", "state": "IA", "name": "IOWA FALLS"}, "USC00134735": {"id": "USC00134735", "lat": "42.7817", "lon": "-96.1458", "elev": "364.2", "state": "IA", "name": "LE MARS"}, "USC00134894": {"id": "USC00134894", "lat": "41.6381", "lon": "-95.7883", "elev": "301.8", "state": "IA", "name": "LOGAN"}, "USC00135769": {"id": "USC00135769", "lat": "40.7053", "lon": "-94.2428", "elev": "347.5", "state": "IA", "name": "MT AYR"}, "USC00135796": {"id": "USC00135796", "lat": "40.9486", "lon": "-91.5647", "elev": "222.5", "state": "IA", "name": "MT PLEASANT 1 SSW"}, "USC00135952": {"id": "USC00135952", "lat": "43.0453", "lon": "-92.3122", "elev": "349.9", "state": "IA", "name": "NEW HAMPTON"}, "USC00137147": {"id": "USC00137147", "lat": "43.4300", "lon": "-96.1686", "elev": "411.5", "state": "IA", "name": "ROCK RAPIDS"}, "USC00137161": {"id": "USC00137161", "lat": "42.3969", "lon": "-94.6292", "elev": "370.0", "state": "IA", "name": "ROCKWELL CITY"}, "USC00137979": {"id": "USC00137979", "lat": "42.6469", "lon": "-95.1933", "elev": "439.5", "state": "IA", "name": "STORM LAKE"}, "USC00138296": {"id": "USC00138296", "lat": "42.0356", "lon": "-92.5806", "elev": "285.0", "state": "IA", "name": "TOLEDO 3N"}, "USC00138688": {"id": "USC00138688", "lat": "41.2825", "lon": "-91.7078", "elev": "209.4", "state": "IA", "name": "WASHINGTON"}, "USC00140365": {"id": "USC00140365", "lat": "37.1942", "lon": "-99.7633", "elev": "600.5", "state": "KS", "name": "ASHLAND"}, "USC00140405": {"id": "USC00140405", "lat": "39.5756", "lon": "-95.1108", "elev": "288.0", "state": "KS", "name": "ATCHISON"}, "USC00141704": {"id": "USC00141704", "lat": "37.2733", "lon": "-99.3289", "elev": "644.7", "state": "KS", "name": "COLDWATER"}, "USC00141740": {"id": "USC00141740", "lat": "37.1767", "lon": "-94.8428", "elev": "272.2", "state": "KS", "name": "COLUMBUS"}, "USC00141867": {"id": "USC00141867", "lat": "38.6758", "lon": "-96.5097", "elev": "400.8", "state": "KS", "name": "COUNCIL GROVE LAKE"}, "USC00142401": {"id": "USC00142401", "lat": "37.8183", "lon": "-96.8444", "elev": "393.2", "state": "KS", "name": "EL DORADO"}, "USC00142459": {"id": "USC00142459", "lat": "38.7297", "lon": "-98.2250", "elev": "477.9", "state": "KS", "name": "ELLSWORTH"}, "USC00142835": {"id": "USC00142835", "lat": "37.8422", "lon": "-94.7083", "elev": "257.6", "state": "KS", "name": "FT SCOTT"}, "USC00143527": {"id": "USC00143527", "lat": "38.8586", "lon": "-99.3358", "elev": "612.6", "state": "KS", "name": "HAYS 1 S"}, "USC00143810": {"id": "USC00143810", "lat": "39.6678", "lon": "-95.5200", "elev": "314.6", "state": "KS", "name": "HORTON"}, "USC00143954": {"id": "USC00143954", "lat": "37.2364", "lon": "-95.7003", "elev": "245.4", "state": "KS", "name": "INDEPENDENCE"}, "USC00144087": {"id": "USC00144087", "lat": "38.1964", "lon": "-99.9175", "elev": "740.7", "state": "KS", "name": "JETMORE 8NNW"}, "USC00144464": {"id": "USC00144464", "lat": "37.9411", "lon": "-101.2492", "elev": "913.8", "state": "KS", "name": "LAKIN"}, "USC00144530": {"id": "USC00144530", "lat": "38.1817", "lon": "-99.0994", "elev": "608.1", "state": "KS", "name": "LARNED"}, "USC00144559": {"id": "USC00144559", "lat": "38.9583", "lon": "-95.2514", "elev": "320.0", "state": "KS", "name": "LAWRENCE"}, "USC00144588": {"id": "USC00144588", "lat": "39.3256", "lon": "-94.9189", "elev": "265.2", "state": "KS", "name": "LEAVENWORTH"}, "USC00144695": {"id": "USC00144695", "lat": "37.0308", "lon": "-100.9069", "elev": "863.8", "state": "KS", "name": "LIBERAL"}, "USC00144972": {"id": "USC00144972", "lat": "39.1972", "lon": "-96.5814", "elev": "323.1", "state": "KS", "name": "MANHATTAN"}, "USC00145152": {"id": "USC00145152", "lat": "38.3772", "lon": "-97.6097", "elev": "463.3", "state": "KS", "name": "MCPHERSON"}, "USC00145173": {"id": "USC00145173", "lat": "37.2767", "lon": "-98.5800", "elev": "448.1", "state": "KS", "name": "MEDICINE LODGE"}, "USC00145363": {"id": "USC00145363", "lat": "39.1247", "lon": "-97.7047", "elev": "398.1", "state": "KS", "name": "MINNEAPOLIS"}, "USC00145856": {"id": "USC00145856", "lat": "39.7408", "lon": "-99.8361", "elev": "735.5", "state": "KS", "name": "NORTON 9SSE"}, "USC00145906": {"id": "USC00145906", "lat": "39.8228", "lon": "-100.5164", "elev": "788.2", "state": "KS", "name": "OBERLIN"}, "USC00145972": {"id": "USC00145972", "lat": "38.8875", "lon": "-94.7603", "elev": "321.6", "state": "KS", "name": "OLATHE 3E"}, "USC00146128": {"id": "USC00146128", "lat": "38.6133", "lon": "-95.2808", "elev": "275.8", "state": "KS", "name": "OTTAWA"}, "USC00147093": {"id": "USC00147093", "lat": "39.7675", "lon": "-101.8067", "elev": "1016.8", "state": "KS", "name": "SAINT FRANCIS"}, "USC00147271": {"id": "USC00147271", "lat": "38.4747", "lon": "-100.9175", "elev": "906.5", "state": "KS", "name": "SCOTT CITY"}, "USC00147305": {"id": "USC00147305", "lat": "37.1322", "lon": "-96.1800", "elev": "274.9", "state": "KS", "name": "SEDAN"}, "USC00147542": {"id": "USC00147542", "lat": "39.7772", "lon": "-98.7783", "elev": "554.7", "state": "KS", "name": "SMITH CTR"}, "USC00148495": {"id": "USC00148495", "lat": "39.0147", "lon": "-99.8722", "elev": "745.2", "state": "KS", "name": "WAKEENEY"}, "USC00150254": {"id": "USC00150254", "lat": "38.4536", "lon": "-82.6131", "elev": "170.7", "state": "KY", "name": "ASHLAND"}, "USC00150381": {"id": "USC00150381", "lat": "36.8825", "lon": "-83.8819", "elev": "301.8", "state": "KY", "name": "BARBOURVILLE"}, "USC00150619": {"id": "USC00150619", "lat": "37.5733", "lon": "-84.2908", "elev": "326.1", "state": "KY", "name": "BEREA COLLEGE"}, "USC00152791": {"id": "USC00152791", "lat": "38.1228", "lon": "-83.5328", "elev": "256.0", "state": "KY", "name": "CAVE RUN LAKE"}, "USC00153028": {"id": "USC00153028", "lat": "38.2022", "lon": "-84.8825", "elev": "140.8", "state": "KY", "name": "FRANKFORT DOWNTOWN"}, "USC00153430": {"id": "USC00153430", "lat": "37.2572", "lon": "-85.5011", "elev": "178.3", "state": "KY", "name": "GREENSBURG"}, "USC00153762": {"id": "USC00153762", "lat": "37.7558", "lon": "-87.6456", "elev": "136.9", "state": "KY", "name": "HENDERSON 8 SSW"}, "USC00153994": {"id": "USC00153994", "lat": "36.8492", "lon": "-87.5206", "elev": "158.5", "state": "KY", "name": "HOPKINSVILLE"}, "USC00154703": {"id": "USC00154703", "lat": "37.5108", "lon": "-86.2892", "elev": "189.0", "state": "KY", "name": "LEITCHFIELD 2 N"}, "USC00157324": {"id": "USC00157324", "lat": "38.2000", "lon": "-85.2000", "elev": "222.5", "state": "KY", "name": "SHELBYVILLE 1 E"}, "USC00158709": {"id": "USC00158709", "lat": "36.7333", "lon": "-84.1500", "elev": "286.5", "state": "KY", "name": "WILLIAMSBURG"}, "USC00158714": {"id": "USC00158714", "lat": "38.6408", "lon": "-84.5592", "elev": "295.4", "state": "KY", "name": "WILLIAMSTOWN"}, "USC00160098": {"id": "USC00160098", "lat": "31.3206", "lon": "-92.4611", "elev": "26.5", "state": "LA", "name": "ALEXANDRIA"}, "USC00160205": {"id": "USC00160205", "lat": "30.7094", "lon": "-90.5250", "elev": "51.8", "state": "LA", "name": "AMITE"}, "USC00160537": {"id": "USC00160537", "lat": "32.7314", "lon": "-91.9144", "elev": "45.7", "state": "LA", "name": "BASTROP"}, "USC00161287": {"id": "USC00161287", "lat": "30.9594", "lon": "-92.1786", "elev": "24.4", "state": "LA", "name": "BUNKIE"}, "USC00161411": {"id": "USC00161411", "lat": "32.5133", "lon": "-92.3486", "elev": "36.6", "state": "LA", "name": "CALHOUN RSCH STN"}, "USC00162151": {"id": "USC00162151", "lat": "30.5272", "lon": "-90.1114", "elev": "12.2", "state": "LA", "name": "COVINGTON 4 NNW"}, "USC00162534": {"id": "USC00162534", "lat": "30.0719", "lon": "-91.0278", "elev": "9.1", "state": "LA", "name": "DONALDSONVILLE 4 SW"}, "USC00163313": {"id": "USC00163313", "lat": "29.8233", "lon": "-91.5442", "elev": "3.7", "state": "LA", "name": "FRANKLIN 3 NW"}, "USC00163800": {"id": "USC00163800", "lat": "30.4183", "lon": "-92.0442", "elev": "16.8", "state": "LA", "name": "GRAND COTEAU"}, "USC00164407": {"id": "USC00164407", "lat": "29.6408", "lon": "-90.8161", "elev": "2.4", "state": "LA", "name": "HOUMA"}, "USC00164700": {"id": "USC00164700", "lat": "30.2003", "lon": "-92.6642", "elev": "7.6", "state": "LA", "name": "JENNINGS"}, "USC00167344": {"id": "USC00167344", "lat": "32.8919", "lon": "-93.6944", "elev": "76.5", "state": "LA", "name": "PLAIN DEALING"}, "USC00168163": {"id": "USC00168163", "lat": "31.9497", "lon": "-91.2336", "elev": "23.8", "state": "LA", "name": "ST JOSEPH 3 N"}, "USC00169013": {"id": "USC00169013", "lat": "29.7547", "lon": "-90.7747", "elev": "4.6", "state": "LA", "name": "THIBODAUX 4 SE"}, "USC00169806": {"id": "USC00169806", "lat": "32.0997", "lon": "-91.7022", "elev": "24.4", "state": "LA", "name": "WINNSBORO 5 SSE"}, "USC00170100": {"id": "USC00170100", "lat": "44.3739", "lon": "-68.2592", "elev": "143.3", "state": "ME", "name": "ACADIA NP"}, "USC00170814": {"id": "USC00170814", "lat": "45.6603", "lon": "-69.8120", "elev": "325.8", "state": "ME", "name": "BRASSUA DAM"}, "USC00171628": {"id": "USC00171628", "lat": "44.9197", "lon": "-69.2417", "elev": "90.5", "state": "ME", "name": "CORINNA"}, "USC00172426": {"id": "USC00172426", "lat": "44.9067", "lon": "-66.9919", "elev": "25.9", "state": "ME", "name": "EASTPORT"}, "USC00172765": {"id": "USC00172765", "lat": "44.6894", "lon": "-70.1564", "elev": "123.4", "state": "ME", "name": "FARMINGTON"}, "USC00173046": {"id": "USC00173046", "lat": "44.2203", "lon": "-69.7889", "elev": "40.5", "state": "ME", "name": "GARDINER"}, "USC00173944": {"id": "USC00173944", "lat": "46.2061", "lon": "-67.8417", "elev": "118.9", "state": "ME", "name": "HOULTON 5N"}, "USC00174566": {"id": "USC00174566", "lat": "44.1000", "lon": "-70.2167", "elev": "54.9", "state": "ME", "name": "LEWISTON"}, "USC00175304": {"id": "USC00175304", "lat": "45.6503", "lon": "-68.7050", "elev": "109.7", "state": "ME", "name": "MILLINOCKET"}, "USC00176937": {"id": "USC00176937", "lat": "46.6539", "lon": "-68.0089", "elev": "182.6", "state": "ME", "name": "PRESQUE ISLE"}, "USC00179891": {"id": "USC00179891", "lat": "45.1542", "lon": "-67.3986", "elev": "37.5", "state": "ME", "name": "WOODLAND"}, "USC00180700": {"id": "USC00180700", "lat": "39.0303", "lon": "-76.9314", "elev": "44.2", "state": "MD", "name": "BELTSVILLE"}, "USC00181385": {"id": "USC00181385", "lat": "38.5667", "lon": "-76.0667", "elev": "3.0", "state": "MD", "name": "CAMBRIDGE WATER TRMT P"}, "USC00181750": {"id": "USC00181750", "lat": "39.2167", "lon": "-76.0519", "elev": "12.2", "state": "MD", "name": "CHESTERTOWN"}, "USC00182282": {"id": "USC00182282", "lat": "39.6419", "lon": "-78.7561", "elev": "222.5", "state": "MD", "name": "CUMBERLAND 2"}, "USC00182523": {"id": "USC00182523", "lat": "38.8833", "lon": "-75.8000", "elev": "14.9", "state": "MD", "name": "DENTON 2 E"}, "USC00183675": {"id": "USC00183675", "lat": "38.9689", "lon": "-76.8042", "elev": "45.7", "state": "MD", "name": "GLENN DALE BELL STN"}, "USC00185111": {"id": "USC00185111", "lat": "39.0847", "lon": "-76.9003", "elev": "121.9", "state": "MD", "name": "LAUREL 3 W"}, "USC00185985": {"id": "USC00185985", "lat": "39.2739", "lon": "-75.8700", "elev": "9.1", "state": "MD", "name": "MILLINGTON 1 SE"}, "USC00186620": {"id": "USC00186620", "lat": "39.4131", "lon": "-79.4003", "elev": "737.6", "state": "MD", "name": "OAKLAND 1 SE"}, "USC00186770": {"id": "USC00186770", "lat": "38.6833", "lon": "-76.6667", "elev": "48.8", "state": "MD", "name": "OWINGS FERRY LANDING"}, "USC00187330": {"id": "USC00187330", "lat": "38.2122", "lon": "-75.6822", "elev": "6.1", "state": "MD", "name": "PRINCESS ANNE"}, "USC00187806": {"id": "USC00187806", "lat": "38.7153", "lon": "-76.1908", "elev": "3.0", "state": "MD", "name": "ROYAL OAK 2 SSW"}, "USC00188000": {"id": "USC00188000", "lat": "38.3650", "lon": "-75.5892", "elev": "3.0", "state": "MD", "name": "SALISBURY"}, "USC00189440": {"id": "USC00189440", "lat": "39.5736", "lon": "-76.9883", "elev": "228.6", "state": "MD", "name": "WESTMINSTER"}, "USC00189750": {"id": "USC00189750", "lat": "39.3333", "lon": "-76.8667", "elev": "140.2", "state": "MD", "name": "WOODSTOCK"}, "USC00190120": {"id": "USC00190120", "lat": "42.3861", "lon": "-72.5375", "elev": "44.2", "state": "MA", "name": "AMHERST"}, "USC00190535": {"id": "USC00190535", "lat": "42.4833", "lon": "-71.2833", "elev": "48.8", "state": "MA", "name": "BEDFORD"}, "USC00190736": {"id": "USC00190736", "lat": "42.2122", "lon": "-71.1136", "elev": "190.5", "state": "MA", "name": "BLUE HILL"}, "USC00193213": {"id": "USC00193213", "lat": "42.2167", "lon": "-73.3500", "elev": "209.7", "state": "MA", "name": "GREAT BARRINGTON 2N"}, "USC00194105": {"id": "USC00194105", "lat": "42.6992", "lon": "-71.1658", "elev": "15.2", "state": "MA", "name": "LAWRENCE"}, "USC00195246": {"id": "USC00195246", "lat": "41.5953", "lon": "-70.9053", "elev": "5.5", "state": "MA", "name": "NEW BEDFORD COOP"}, "USC00196486": {"id": "USC00196486", "lat": "41.9819", "lon": "-70.6961", "elev": "13.7", "state": "MA", "name": "PLYMOUTH-KINGSTON"}, "USC00196681": {"id": "USC00196681", "lat": "42.0500", "lon": "-70.1833", "elev": "6.1", "state": "MA", "name": "PROVINCETOWN"}, "USC00196783": {"id": "USC00196783", "lat": "42.5239", "lon": "-71.1250", "elev": "33.5", "state": "MA", "name": "READING"}, "USC00198367": {"id": "USC00198367", "lat": "41.9003", "lon": "-71.0658", "elev": "6.1", "state": "MA", "name": "TAUNTON"}, "USC00198757": {"id": "USC00198757", "lat": "42.1608", "lon": "-71.2461", "elev": "51.8", "state": "MA", "name": "WALPOLE 2"}, "USC00199316": {"id": "USC00199316", "lat": "42.1333", "lon": "-71.4333", "elev": "64.0", "state": "MA", "name": "WEST MEDWAY"}, "USC00200032": {"id": "USC00200032", "lat": "41.9164", "lon": "-84.0158", "elev": "231.6", "state": "MI", "name": "ADRIAN 2 NNE"}, "USC00200128": {"id": "USC00200128", "lat": "42.5800", "lon": "-85.7892", "elev": "228.6", "state": "MI", "name": "ALLEGAN 5NE"}, "USC00200146": {"id": "USC00200146", "lat": "43.3869", "lon": "-84.6483", "elev": "222.2", "state": "MI", "name": "ALMA"}, "USC00200230": {"id": "USC00200230", "lat": "42.2981", "lon": "-83.6639", "elev": "247.8", "state": "MI", "name": "ANN ARBOR U OF MICH"}, "USC00200779": {"id": "USC00200779", "lat": "43.7072", "lon": "-85.4822", "elev": "283.5", "state": "MI", "name": "BIG RAPIDS WTR WKS"}, "USC00201439": {"id": "USC00201439", "lat": "46.5192", "lon": "-87.9858", "elev": "487.4", "state": "MI", "name": "CHAMPION VAN RIPER PK"}, "USC00201486": {"id": "USC00201486", "lat": "46.3414", "lon": "-86.9242", "elev": "265.2", "state": "MI", "name": "CHATHAM EXP FARM 2"}, "USC00201492": {"id": "USC00201492", "lat": "45.6528", "lon": "-84.4725", "elev": "179.2", "state": "MI", "name": "CHEBOYGAN"}, "USC00201675": {"id": "USC00201675", "lat": "41.9622", "lon": "-84.9925", "elev": "299.9", "state": "MI", "name": "COLDWATER ST SCHOOL"}, "USC00202423": {"id": "USC00202423", "lat": "44.2839", "lon": "-83.5036", "elev": "178.6", "state": "MI", "name": "E TAWAS"}, "USC00202737": {"id": "USC00202737", "lat": "45.6667", "lon": "-86.7167", "elev": "227.1", "state": "MI", "name": "FAYETTE 4 SW"}, "USC00203632": {"id": "USC00203632", "lat": "43.6747", "lon": "-86.4239", "elev": "234.7", "state": "MI", "name": "HART 3 WSW"}, "USC00203823": {"id": "USC00203823", "lat": "41.9353", "lon": "-84.6411", "elev": "329.2", "state": "MI", "name": "HILLSDALE"}, "USC00204090": {"id": "USC00204090", "lat": "45.7858", "lon": "-88.0842", "elev": "326.4", "state": "MI", "name": "IRON MTN-KINGSFORD WWTP"}, "USC00204104": {"id": "USC00204104", "lat": "46.4656", "lon": "-90.1892", "elev": "435.9", "state": "MI", "name": "IRONWOOD"}, "USC00204244": {"id": "USC00204244", "lat": "42.2833", "lon": "-85.6000", "elev": "289.6", "state": "MI", "name": "KALAMAZOO STATE HOSPITAL"}, "USC00205434": {"id": "USC00205434", "lat": "43.6089", "lon": "-84.2011", "elev": "195.1", "state": "MI", "name": "MIDLAND"}, "USC00205662": {"id": "USC00205662", "lat": "43.5858", "lon": "-84.7694", "elev": "242.3", "state": "MI", "name": "CENTRAL MICHIGAN UNIV"}, "USC00205690": {"id": "USC00205690", "lat": "46.4122", "lon": "-86.6625", "elev": "207.3", "state": "MI", "name": "MUNISING"}, "USC00205816": {"id": "USC00205816", "lat": "46.3286", "lon": "-85.5033", "elev": "270.1", "state": "MI", "name": "NEWBERRY CORRECTIONAL FACILITY"}, "USC00206300": {"id": "USC00206300", "lat": "43.0161", "lon": "-84.1800", "elev": "222.5", "state": "MI", "name": "OWOSSO WWTP"}, "USC00207690": {"id": "USC00207690", "lat": "42.4014", "lon": "-86.2825", "elev": "179.8", "state": "MI", "name": "S HAVEN"}, "USC00207812": {"id": "USC00207812", "lat": "46.0556", "lon": "-88.6275", "elev": "442.0", "state": "MI", "name": "STAMBAUGH 2SSE"}, "USC00210018": {"id": "USC00210018", "lat": "47.2992", "lon": "-96.5161", "elev": "276.5", "state": "MN", "name": "ADA"}, "USC00210075": {"id": "USC00210075", "lat": "43.6064", "lon": "-93.3019", "elev": "374.9", "state": "MN", "name": "ALBERT LEA 3SE"}, "USC00210252": {"id": "USC00210252", "lat": "48.3311", "lon": "-96.8253", "elev": "258.2", "state": "MN", "name": "ARGYLE"}, "USC00210515": {"id": "USC00210515", "lat": "48.7094", "lon": "-94.5853", "elev": "333.5", "state": "MN", "name": "BAUDETTE"}, "USC00211465": {"id": "USC00211465", "lat": "44.8000", "lon": "-93.5833", "elev": "219.5", "state": "MN", "name": "CHASKA"}, "USC00211630": {"id": "USC00211630", "lat": "46.7053", "lon": "-92.5239", "elev": "385.6", "state": "MN", "name": "CLOQUET"}, "USC00212142": {"id": "USC00212142", "lat": "46.8372", "lon": "-95.8375", "elev": "413.0", "state": "MN", "name": "DETROIT LAKES 1 NNE"}, "USC00212645": {"id": "USC00212645", "lat": "47.4581", "lon": "-92.5303", "elev": "440.4", "state": "MN", "name": "EVELETH WWTP"}, "USC00212698": {"id": "USC00212698", "lat": "43.6447", "lon": "-94.4656", "elev": "361.8", "state": "MN", "name": "FAIRMONT"}, "USC00212737": {"id": "USC00212737", "lat": "44.6697", "lon": "-93.1700", "elev": "298.7", "state": "MN", "name": "FARMINGTON 3 NW"}, "USC00212916": {"id": "USC00212916", "lat": "47.5639", "lon": "-95.7247", "elev": "396.2", "state": "MN", "name": "FOSSTON 1 E"}, "USC00213290": {"id": "USC00213290", "lat": "43.7047", "lon": "-92.5644", "elev": "411.5", "state": "MN", "name": "GRAND MEADOW"}, "USC00213303": {"id": "USC00213303", "lat": "47.2436", "lon": "-93.4975", "elev": "399.3", "state": "MN", "name": "GRAND RPDS FOREST LAB"}, "USC00214106": {"id": "USC00214106", "lat": "47.2256", "lon": "-95.1919", "elev": "454.2", "state": "MN", "name": "ITASCA UNIV OF MINN"}, "USC00214652": {"id": "USC00214652", "lat": "47.2467", "lon": "-94.2228", "elev": "396.8", "state": "MN", "name": "LEECH LAKE"}, "USC00215175": {"id": "USC00215175", "lat": "47.6308", "lon": "-93.6522", "elev": "422.8", "state": "MN", "name": "MARCELL 5NE"}, "USC00215400": {"id": "USC00215400", "lat": "45.1219", "lon": "-95.9269", "elev": "310.9", "state": "MN", "name": "MILAN 1NW"}, "USC00215563": {"id": "USC00215563", "lat": "44.9342", "lon": "-95.7458", "elev": "301.8", "state": "MN", "name": "MONTEVIDEO 1SW"}, "USC00215615": {"id": "USC00215615", "lat": "45.8775", "lon": "-93.3147", "elev": "310.3", "state": "MN", "name": "MORA"}, "USC00215638": {"id": "USC00215638", "lat": "45.5900", "lon": "-95.8744", "elev": "347.5", "state": "MN", "name": "MORRIS W CNTRL RSCH & OUTREACH"}, "USC00215887": {"id": "USC00215887", "lat": "44.3006", "lon": "-94.4897", "elev": "271.3", "state": "MN", "name": "NEW ULM 2 SE"}, "USC00216152": {"id": "USC00216152", "lat": "44.7628", "lon": "-94.9297", "elev": "335.3", "state": "MN", "name": "OLIVIA 3E"}, "USC00216547": {"id": "USC00216547", "lat": "46.6694", "lon": "-94.1089", "elev": "381.0", "state": "MN", "name": "PINE RVR DAM"}, "USC00216565": {"id": "USC00216565", "lat": "44.0139", "lon": "-96.3258", "elev": "519.7", "state": "MN", "name": "PIPESTONE"}, "USC00217087": {"id": "USC00217087", "lat": "48.8486", "lon": "-95.7675", "elev": "319.1", "state": "MN", "name": "ROSEAU"}, "USC00217405": {"id": "USC00217405", "lat": "44.3222", "lon": "-93.9656", "elev": "242.3", "state": "MN", "name": "ST PETER"}, "USC00217460": {"id": "USC00217460", "lat": "46.7953", "lon": "-93.3211", "elev": "376.1", "state": "MN", "name": "SANDY LAKE DAM LIBBY"}, "USC00218419": {"id": "USC00218419", "lat": "47.0258", "lon": "-91.6653", "elev": "190.5", "state": "MN", "name": "TWO HARBORS"}, "USC00218618": {"id": "USC00218618", "lat": "47.0936", "lon": "-94.5739", "elev": "435.9", "state": "MN", "name": "WALKER"}, "USC00219046": {"id": "USC00219046", "lat": "43.7639", "lon": "-94.1661", "elev": "338.3", "state": "MN", "name": "WINNEBAGO"}, "USC00219249": {"id": "USC00219249", "lat": "44.2992", "lon": "-92.6661", "elev": "295.7", "state": "MN", "name": "ZUMBROTA"}, "USC00220021": {"id": "USC00220021", "lat": "33.8300", "lon": "-88.5214", "elev": "60.4", "state": "MS", "name": "ABERDEEN"}, "USC00220488": {"id": "USC00220488", "lat": "34.3061", "lon": "-89.9806", "elev": "67.1", "state": "MS", "name": "BATESVILLE 2 SW"}, "USC00220955": {"id": "USC00220955", "lat": "34.6344", "lon": "-88.5622", "elev": "149.4", "state": "MS", "name": "BOONEVILLE"}, "USC00221094": {"id": "USC00221094", "lat": "31.5447", "lon": "-90.4581", "elev": "132.6", "state": "MS", "name": "BROOKHAVEN CITY"}, "USC00221389": {"id": "USC00221389", "lat": "32.6714", "lon": "-90.0361", "elev": "76.2", "state": "MS", "name": "CANTON 4N"}, "USC00221707": {"id": "USC00221707", "lat": "34.1864", "lon": "-90.5572", "elev": "52.7", "state": "MS", "name": "CLARKSDALE"}, "USC00221865": {"id": "USC00221865", "lat": "31.2503", "lon": "-89.8361", "elev": "45.7", "state": "MS", "name": "COLUMBIA"}, "USC00221880": {"id": "USC00221880", "lat": "33.4678", "lon": "-88.3847", "elev": "44.2", "state": "MS", "name": "COLUMBUS"}, "USC00221962": {"id": "USC00221962", "lat": "34.8792", "lon": "-88.6178", "elev": "117.3", "state": "MS", "name": "CORINTH 7 SW"}, "USC00222094": {"id": "USC00222094", "lat": "31.9461", "lon": "-90.3775", "elev": "148.4", "state": "MS", "name": "CRYSTAL SPGS EXP STN"}, "USC00223107": {"id": "USC00223107", "lat": "32.3600", "lon": "-89.4208", "elev": "137.2", "state": "MS", "name": "FOREST"}, "USC00223605": {"id": "USC00223605", "lat": "33.3592", "lon": "-91.0600", "elev": "38.1", "state": "MS", "name": "GREENVILLE"}, "USC00223887": {"id": "USC00223887", "lat": "31.2547", "lon": "-89.3392", "elev": "117.3", "state": "MS", "name": "HATTIESBURG 5SW"}, "USC00223975": {"id": "USC00223975", "lat": "34.8039", "lon": "-90.0103", "elev": "115.8", "state": "MS", "name": "HERNANDO"}, "USC00224173": {"id": "USC00224173", "lat": "34.8219", "lon": "-89.4347", "elev": "147.2", "state": "MS", "name": "HOLLY SPRINGS 4 N"}, "USC00224776": {"id": "USC00224776", "lat": "33.0583", "lon": "-89.5797", "elev": "125.0", "state": "MS", "name": "KOSCIUSKO"}, "USC00224939": {"id": "USC00224939", "lat": "31.6756", "lon": "-89.1236", "elev": "68.6", "state": "MS", "name": "LAUREL"}, "USC00225247": {"id": "USC00225247", "lat": "33.1356", "lon": "-89.0711", "elev": "177.1", "state": "MS", "name": "LOUISVILLE"}, "USC00225987": {"id": "USC00225987", "lat": "31.5519", "lon": "-90.1058", "elev": "58.2", "state": "MS", "name": "MONTICELLO"}, "USC00226009": {"id": "USC00226009", "lat": "33.4517", "lon": "-90.5097", "elev": "35.7", "state": "MS", "name": "MOORHEAD"}, "USC00226177": {"id": "USC00226177", "lat": "31.5889", "lon": "-91.3408", "elev": "59.4", "state": "MS", "name": "NATCHEZ"}, "USC00226718": {"id": "USC00226718", "lat": "30.3961", "lon": "-88.4781", "elev": "3.7", "state": "MS", "name": "PASCAGOULA 3 NE"}, "USC00227111": {"id": "USC00227111", "lat": "34.1381", "lon": "-88.9983", "elev": "123.4", "state": "MS", "name": "PONTOTOC EXP STN"}, "USC00227128": {"id": "USC00227128", "lat": "30.8408", "lon": "-89.5453", "elev": "95.4", "state": "MS", "name": "POPLARVILLE EXP STN"}, "USC00227132": {"id": "USC00227132", "lat": "31.9850", "lon": "-90.9719", "elev": "36.6", "state": "MS", "name": "PORT GIBSON 1 NE"}, "USC00228374": {"id": "USC00228374", "lat": "33.4692", "lon": "-88.7822", "elev": "56.4", "state": "MS", "name": "STATE UNIV"}, "USC00229079": {"id": "USC00229079", "lat": "34.3725", "lon": "-89.5308", "elev": "124.4", "state": "MS", "name": "UNIVERSITY"}, "USC00229400": {"id": "USC00229400", "lat": "34.1583", "lon": "-89.6311", "elev": "94.5", "state": "MS", "name": "WATER VALLEY"}, "USC00229426": {"id": "USC00229426", "lat": "30.2947", "lon": "-89.3831", "elev": "2.4", "state": "MS", "name": "WAVELAND"}, "USC00229439": {"id": "USC00229439", "lat": "31.6772", "lon": "-88.6708", "elev": "61.0", "state": "MS", "name": "WAYNESBORO 2 W"}, "USC00229793": {"id": "USC00229793", "lat": "31.0931", "lon": "-91.2325", "elev": "121.9", "state": "MS", "name": "WOODVILLE 4 ESE"}, "USC00229860": {"id": "USC00229860", "lat": "32.9028", "lon": "-90.3817", "elev": "32.6", "state": "MS", "name": "YAZOO CITY 5 NNE"}, "USC00230204": {"id": "USC00230204", "lat": "38.1872", "lon": "-94.0283", "elev": "264.0", "state": "MO", "name": "APPLETON CITY"}, "USC00230856": {"id": "USC00230856", "lat": "39.3444", "lon": "-91.1708", "elev": "270.4", "state": "MO", "name": "BOWLING GREEN 1 E"}, "USC00231037": {"id": "USC00231037", "lat": "39.4247", "lon": "-93.1331", "elev": "201.8", "state": "MO", "name": "BRUNSWICK"}, "USC00231364": {"id": "USC00231364", "lat": "36.1875", "lon": "-89.6600", "elev": "82.3", "state": "MO", "name": "CARUTHERSVILLE"}, "USC00231711": {"id": "USC00231711", "lat": "38.3950", "lon": "-93.7711", "elev": "234.7", "state": "MO", "name": "CLINTON"}, "USC00231822": {"id": "USC00231822", "lat": "40.2394", "lon": "-94.6833", "elev": "337.7", "state": "MO", "name": "CONCEPTION"}, "USC00232289": {"id": "USC00232289", "lat": "36.6206", "lon": "-90.8125", "elev": "88.1", "state": "MO", "name": "DONIPHAN"}, "USC00232809": {"id": "USC00232809", "lat": "37.7919", "lon": "-90.4097", "elev": "274.3", "state": "MO", "name": "FARMINGTON"}, "USC00234271": {"id": "USC00234271", "lat": "38.5853", "lon": "-92.1825", "elev": "198.1", "state": "MO", "name": "JEFFERSON CITY WTP"}, "USC00234705": {"id": "USC00234705", "lat": "37.5983", "lon": "-94.2842", "elev": "293.5", "state": "MO", "name": "LAMAR 7N"}, "USC00234825": {"id": "USC00234825", "lat": "37.6850", "lon": "-92.6939", "elev": "379.8", "state": "MO", "name": "LEBANON 2W"}, "USC00234850": {"id": "USC00234850", "lat": "38.8803", "lon": "-94.3358", "elev": "304.8", "state": "MO", "name": "LEES SUMMIT REED WR"}, "USC00234904": {"id": "USC00234904", "lat": "39.1828", "lon": "-93.8550", "elev": "251.5", "state": "MO", "name": "LEXINGTON 3E"}, "USC00235027": {"id": "USC00235027", "lat": "37.3908", "lon": "-93.9492", "elev": "328.3", "state": "MO", "name": "LOCKWOOD"}, "USC00235253": {"id": "USC00235253", "lat": "37.3036", "lon": "-89.9664", "elev": "118.9", "state": "MO", "name": "MARBLE HILL"}, "USC00235541": {"id": "USC00235541", "lat": "39.1756", "lon": "-91.8861", "elev": "244.4", "state": "MO", "name": "MEXICO"}, "USC00235671": {"id": "USC00235671", "lat": "39.4194", "lon": "-92.4369", "elev": "262.1", "state": "MO", "name": "MOBERLY"}, "USC00235834": {"id": "USC00235834", "lat": "37.1542", "lon": "-92.2619", "elev": "446.8", "state": "MO", "name": "MTN GROVE 2 N"}, "USC00235976": {"id": "USC00235976", "lat": "36.8650", "lon": "-94.3603", "elev": "314.9", "state": "MO", "name": "NEOSHO"}, "USC00237263": {"id": "USC00237263", "lat": "37.9567", "lon": "-91.7761", "elev": "357.5", "state": "MO", "name": "ROLLA MISSOURI S&T"}, "USC00237963": {"id": "USC00237963", "lat": "40.2472", "lon": "-93.7158", "elev": "266.7", "state": "MO", "name": "SPICKARD 7 W"}, "USC00238051": {"id": "USC00238051", "lat": "39.9700", "lon": "-91.8875", "elev": "210.3", "state": "MO", "name": "STEFFENVILLE"}, "USC00238223": {"id": "USC00238223", "lat": "38.9664", "lon": "-93.4194", "elev": "205.7", "state": "MO", "name": "SWEET SPRINGS"}, "USC00238466": {"id": "USC00238466", "lat": "38.2597", "lon": "-93.4136", "elev": "229.8", "state": "MO", "name": "TRUMAN DAM & RSVR"}, "USC00238523": {"id": "USC00238523", "lat": "40.4750", "lon": "-93.0031", "elev": "323.1", "state": "MO", "name": "UNIONVILLE"}, "USC00238725": {"id": "USC00238725", "lat": "38.8350", "lon": "-91.1386", "elev": "252.1", "state": "MO", "name": "WARRENTON 1 N"}, "USC00240199": {"id": "USC00240199", "lat": "46.1308", "lon": "-112.9333", "elev": "1594.1", "state": "MT", "name": "ANACONDA"}, "USC00240364": {"id": "USC00240364", "lat": "47.4925", "lon": "-112.3969", "elev": "1240.5", "state": "MT", "name": "AUGUSTA"}, "USC00240780": {"id": "USC00240780", "lat": "45.8325", "lon": "-109.9511", "elev": "1249.7", "state": "MT", "name": "BIG TIMBER"}, "USC00241044": {"id": "USC00241044", "lat": "45.6622", "lon": "-111.4064", "elev": "1497.5", "state": "MT", "name": "BOZEMAN MONTANA STATE UNIV"}, "USC00241552": {"id": "USC00241552", "lat": "47.2192", "lon": "-111.7106", "elev": "1024.1", "state": "MT", "name": "CASCADE 5 S"}, "USC00241722": {"id": "USC00241722", "lat": "48.5883", "lon": "-109.2267", "elev": "737.6", "state": "MT", "name": "CHINOOK"}, "USC00241737": {"id": "USC00241737", "lat": "47.8206", "lon": "-112.1922", "elev": "1172.0", "state": "MT", "name": "CHOTEAU"}, "USC00242409": {"id": "USC00242409", "lat": "45.2089", "lon": "-112.6389", "elev": "1563.3", "state": "MT", "name": "DILLON U OF MONTANA WESTERN"}, "USC00242689": {"id": "USC00242689", "lat": "45.8864", "lon": "-104.5478", "elev": "1046.1", "state": "MT", "name": "EKALAKA"}, "USC00242793": {"id": "USC00242793", "lat": "45.3394", "lon": "-111.7122", "elev": "1509.7", "state": "MT", "name": "ENNIS"}, "USC00243013": {"id": "USC00243013", "lat": "46.8217", "lon": "-108.3725", "elev": "1003.4", "state": "MT", "name": "FLATWILLOW 4 ENE"}, "USC00243089": {"id": "USC00243089", "lat": "48.7778", "lon": "-107.4536", "elev": "792.2", "state": "MT", "name": "FORKS 4 NNE"}, "USC00243110": {"id": "USC00243110", "lat": "48.4983", "lon": "-109.8014", "elev": "815.3", "state": "MT", "name": "FT ASSINIBOINE"}, "USC00243139": {"id": "USC00243139", "lat": "48.7783", "lon": "-114.8997", "elev": "914.4", "state": "MT", "name": "FORTINE 1 N"}, "USC00243581": {"id": "USC00243581", "lat": "47.1064", "lon": "-104.7183", "elev": "632.8", "state": "MT", "name": "GLENDIVE"}, "USC00243885": {"id": "USC00243885", "lat": "46.2461", "lon": "-114.1681", "elev": "1092.7", "state": "MT", "name": "HAMILTON"}, "USC00244038": {"id": "USC00244038", "lat": "44.8667", "lon": "-111.3392", "elev": "1977.8", "state": "MT", "name": "HEBGEN DAM"}, "USC00244345": {"id": "USC00244345", "lat": "45.9228", "lon": "-108.2453", "elev": "924.8", "state": "MT", "name": "HUNTLEY EXP STN"}, "USC00244364": {"id": "USC00244364", "lat": "45.9353", "lon": "-107.1375", "elev": "944.9", "state": "MT", "name": "HYSHAM 25 SSE"}, "USC00244522": {"id": "USC00244522", "lat": "47.3144", "lon": "-106.9103", "elev": "798.6", "state": "MT", "name": "JORDAN"}, "USC00244558": {"id": "USC00244558", "lat": "48.3042", "lon": "-114.2636", "elev": "901.3", "state": "MT", "name": "KALISPELL GLACIER AP"}, "USC00245015": {"id": "USC00245015", "lat": "48.4036", "lon": "-115.5392", "elev": "638.9", "state": "MT", "name": "LIBBY 1 NE RS"}, "USC00245080": {"id": "USC00245080", "lat": "45.4956", "lon": "-110.5589", "elev": "1537.4", "state": "MT", "name": "LIVINGSTON 12 S"}, "USC00245338": {"id": "USC00245338", "lat": "48.3939", "lon": "-107.7286", "elev": "680.0", "state": "MT", "name": "MALTA 7 E"}, "USC00245572": {"id": "USC00245572", "lat": "48.4828", "lon": "-104.4514", "elev": "591.9", "state": "MT", "name": "MEDICINE LAKE 3 SE"}, "USC00245668": {"id": "USC00245668", "lat": "46.7614", "lon": "-104.9622", "elev": "756.5", "state": "MT", "name": "MILDRED 5 N"}, "USC00245761": {"id": "USC00245761", "lat": "47.0572", "lon": "-109.9511", "elev": "1310.6", "state": "MT", "name": "MOCCASIN EXP STN"}, "USC00246157": {"id": "USC00246157", "lat": "45.4875", "lon": "-111.6336", "elev": "1446.3", "state": "MT", "name": "NORRIS MADISON PWR HOUSE"}, "USC00246472": {"id": "USC00246472", "lat": "46.3158", "lon": "-113.3000", "elev": "1606.3", "state": "MT", "name": "PHILLIPSBURG RS"}, "USC00246601": {"id": "USC00246601", "lat": "46.4178", "lon": "-104.5164", "elev": "847.3", "state": "MT", "name": "PLEVNA"}, "USC00246918": {"id": "USC00246918", "lat": "45.1769", "lon": "-109.2572", "elev": "1720.9", "state": "MT", "name": "RED LODGE"}, "USC00247286": {"id": "USC00247286", "lat": "47.3150", "lon": "-114.0983", "elev": "888.5", "state": "MT", "name": "SAINT IGNATIUS"}, "USC00247318": {"id": "USC00247318", "lat": "47.3036", "lon": "-115.0908", "elev": "810.8", "state": "MT", "name": "SAINT REGIS 1 NE"}, "USC00247382": {"id": "USC00247382", "lat": "47.4536", "lon": "-104.3378", "elev": "602.0", "state": "MT", "name": "SAVAGE"}, "USC00248501": {"id": "USC00248501", "lat": "48.3119", "lon": "-112.2492", "elev": "1160.4", "state": "MT", "name": "VALIER"}, "USC00248569": {"id": "USC00248569", "lat": "47.8800", "lon": "-105.3686", "elev": "696.2", "state": "MT", "name": "VIDA 6 NE"}, "USC00248597": {"id": "USC00248597", "lat": "45.2925", "lon": "-111.9478", "elev": "1759.6", "state": "MT", "name": "VIRGINIA CITY"}, "USC00248857": {"id": "USC00248857", "lat": "44.6500", "lon": "-111.1000", "elev": "2029.7", "state": "MT", "name": "WEST YELLOWSTONE"}, "USC00248930": {"id": "USC00248930", "lat": "46.5436", "lon": "-110.9000", "elev": "1536.2", "state": "MT", "name": "WHITE SULPHUR SPRINGS #2"}, "USC00250070": {"id": "USC00250070", "lat": "41.6853", "lon": "-98.0083", "elev": "547.1", "state": "NE", "name": "ALBION"}, "USC00250130": {"id": "USC00250130", "lat": "42.1103", "lon": "-102.8967", "elev": "1217.4", "state": "NE", "name": "ALLIANCE 1WNW"}, "USC00250375": {"id": "USC00250375", "lat": "41.0408", "lon": "-96.3811", "elev": "340.8", "state": "NE", "name": "ASHLAND NO 2"}, "USC00250420": {"id": "USC00250420", "lat": "42.5136", "lon": "-99.0303", "elev": "648.6", "state": "NE", "name": "ATKINSON 3SW"}, "USC00250435": {"id": "USC00250435", "lat": "40.3706", "lon": "-95.7469", "elev": "283.5", "state": "NE", "name": "AUBURN 5 ESE"}, "USC00250622": {"id": "USC00250622", "lat": "40.2994", "lon": "-96.7500", "elev": "395.3", "state": "NE", "name": "BEATRICE 1N"}, "USC00250640": {"id": "USC00250640", "lat": "40.1306", "lon": "-99.8278", "elev": "654.7", "state": "NE", "name": "BEAVER CITY"}, "USC00251145": {"id": "USC00251145", "lat": "41.6681", "lon": "-103.1039", "elev": "1117.4", "state": "NE", "name": "BRIDGEPORT"}, "USC00251200": {"id": "USC00251200", "lat": "41.4083", "lon": "-99.6750", "elev": "763.2", "state": "NE", "name": "BROKEN BOW 2 W"}, "USC00252020": {"id": "USC00252020", "lat": "40.6092", "lon": "-96.8719", "elev": "445.0", "state": "NE", "name": "CRETE 4ESE"}, "USC00252100": {"id": "USC00252100", "lat": "40.6344", "lon": "-100.5219", "elev": "794.3", "state": "NE", "name": "CURTIS"}, "USC00252205": {"id": "USC00252205", "lat": "41.2492", "lon": "-97.1328", "elev": "490.7", "state": "NE", "name": "DAVID CITY"}, "USC00252820": {"id": "USC00252820", "lat": "40.0739", "lon": "-97.1669", "elev": "411.5", "state": "NE", "name": "FAIRBURY 5S"}, "USC00252840": {"id": "USC00252840", "lat": "40.6422", "lon": "-97.5928", "elev": "499.9", "state": "NE", "name": "FAIRMONT"}, "USC00253035": {"id": "USC00253035", "lat": "40.1000", "lon": "-98.9667", "elev": "565.4", "state": "NE", "name": "FRANKLIN"}, "USC00253175": {"id": "USC00253175", "lat": "40.5314", "lon": "-97.5964", "elev": "496.8", "state": "NE", "name": "GENEVA"}, "USC00253185": {"id": "USC00253185", "lat": "41.4514", "lon": "-97.7644", "elev": "484.6", "state": "NE", "name": "GENOA 2 W"}, "USC00253365": {"id": "USC00253365", "lat": "40.9394", "lon": "-100.1514", "elev": "793.4", "state": "NE", "name": "GOTHENBURG"}, "USC00253615": {"id": "USC00253615", "lat": "42.6858", "lon": "-103.8842", "elev": "1478.3", "state": "NE", "name": "HARRISON"}, "USC00253630": {"id": "USC00253630", "lat": "42.6167", "lon": "-97.2608", "elev": "429.2", "state": "NE", "name": "HARTINGTON"}, "USC00253660": {"id": "USC00253660", "lat": "40.6472", "lon": "-98.3836", "elev": "590.7", "state": "NE", "name": "HASTINGS 4N"}, "USC00253715": {"id": "USC00253715", "lat": "42.5119", "lon": "-102.6944", "elev": "1159.8", "state": "NE", "name": "HAY SPRINGS 12 S"}, "USC00253735": {"id": "USC00253735", "lat": "40.1750", "lon": "-97.5903", "elev": "451.1", "state": "NE", "name": "HEBRON"}, "USC00253910": {"id": "USC00253910", "lat": "40.4517", "lon": "-99.3803", "elev": "707.1", "state": "NE", "name": "HOLDREGE"}, "USC00254110": {"id": "USC00254110", "lat": "40.5122", "lon": "-101.6528", "elev": "1002.8", "state": "NE", "name": "IMPERIAL"}, "USC00254440": {"id": "USC00254440", "lat": "41.2453", "lon": "-103.6344", "elev": "1435.0", "state": "NE", "name": "KIMBALL 2NE"}, "USC00254900": {"id": "USC00254900", "lat": "41.1489", "lon": "-102.6361", "elev": "1168.0", "state": "NE", "name": "LODGEPOLE"}, "USC00254985": {"id": "USC00254985", "lat": "41.2789", "lon": "-98.9697", "elev": "630.9", "state": "NE", "name": "LOUP CITY"}, "USC00255080": {"id": "USC00255080", "lat": "41.8292", "lon": "-97.4500", "elev": "481.6", "state": "NE", "name": "MADISON"}, "USC00255310": {"id": "USC00255310", "lat": "40.2153", "lon": "-100.6203", "elev": "779.1", "state": "NE", "name": "MC COOK"}, "USC00255470": {"id": "USC00255470", "lat": "42.9194", "lon": "-101.7089", "elev": "986.0", "state": "NE", "name": "MERRIMAN"}, "USC00255565": {"id": "USC00255565", "lat": "40.5156", "lon": "-98.9514", "elev": "658.4", "state": "NE", "name": "MINDEN"}, "USC00256040": {"id": "USC00256040", "lat": "41.4933", "lon": "-98.7747", "elev": "597.4", "state": "NE", "name": "NORTH LOUP"}, "USC00256135": {"id": "USC00256135", "lat": "42.0644", "lon": "-97.9667", "elev": "533.1", "state": "NE", "name": "OAKDALE"}, "USC00256570": {"id": "USC00256570", "lat": "40.1117", "lon": "-96.1514", "elev": "362.4", "state": "NE", "name": "PAWNEE CITY"}, "USC00256970": {"id": "USC00256970", "lat": "42.0650", "lon": "-100.2472", "elev": "819.9", "state": "NE", "name": "PURDUM"}, "USC00257070": {"id": "USC00257070", "lat": "40.0978", "lon": "-98.5197", "elev": "527.9", "state": "NE", "name": "RED CLOUD"}, "USC00257515": {"id": "USC00257515", "lat": "41.2078", "lon": "-98.4608", "elev": "552.3", "state": "NE", "name": "SAINT PAUL"}, "USC00257715": {"id": "USC00257715", "lat": "40.8997", "lon": "-97.0908", "elev": "440.4", "state": "NE", "name": "SEWARD"}, "USC00258133": {"id": "USC00258133", "lat": "41.4581", "lon": "-100.5986", "elev": "921.1", "state": "NE", "name": "STAPLETON 5W"}, "USC00258395": {"id": "USC00258395", "lat": "40.6661", "lon": "-96.1892", "elev": "335.3", "state": "NE", "name": "SYRACUSE"}, "USC00258465": {"id": "USC00258465", "lat": "40.3544", "lon": "-96.1939", "elev": "338.3", "state": "NE", "name": "TECUMSEH 1S"}, "USC00258480": {"id": "USC00258480", "lat": "41.7767", "lon": "-96.2328", "elev": "347.5", "state": "NE", "name": "TEKAMAH"}, "USC00258915": {"id": "USC00258915", "lat": "42.2619", "lon": "-96.8636", "elev": "429.2", "state": "NE", "name": "WAKEFIELD"}, "USC00259090": {"id": "USC00259090", "lat": "40.8639", "lon": "-96.1414", "elev": "335.3", "state": "NE", "name": "WEEPING WATER"}, "USC00259510": {"id": "USC00259510", "lat": "40.8678", "lon": "-97.5922", "elev": "490.7", "state": "NE", "name": "YORK"}, "USC00260507": {"id": "USC00260507", "lat": "39.4931", "lon": "-117.0675", "elev": "2066.5", "state": "NV", "name": "AUSTIN #2"}, "USC00261071": {"id": "USC00261071", "lat": "35.9800", "lon": "-114.8464", "elev": "762.0", "state": "NV", "name": "BOULDER CITY"}, "USC00262780": {"id": "USC00262780", "lat": "39.4572", "lon": "-118.7811", "elev": "1208.5", "state": "NV", "name": "FALLON EXP STN"}, "USC00263245": {"id": "USC00263245", "lat": "40.9567", "lon": "-117.4922", "elev": "1339.3", "state": "NV", "name": "GOLCONDA"}, "USC00264698": {"id": "USC00264698", "lat": "40.1808", "lon": "-118.5100", "elev": "1211.3", "state": "NV", "name": "LOVELOCK"}, "USC00264950": {"id": "USC00264950", "lat": "39.4136", "lon": "-114.7733", "elev": "1911.1", "state": "NV", "name": "MCGILL"}, "USC00265168": {"id": "USC00265168", "lat": "38.3878", "lon": "-118.1092", "elev": "1396.0", "state": "NV", "name": "MINA"}, "USC00267369": {"id": "USC00267369", "lat": "35.4661", "lon": "-114.9217", "elev": "1079.0", "state": "NV", "name": "SEARCHLIGHT"}, "USC00268988": {"id": "USC00268988", "lat": "41.1006", "lon": "-114.9736", "elev": "1737.4", "state": "NV", "name": "WELLS"}, "USC00270706": {"id": "USC00270706", "lat": "44.3064", "lon": "-71.6575", "elev": "359.7", "state": "NH", "name": "BETHLEHEM 2"}, "USC00272174": {"id": "USC00272174", "lat": "43.1433", "lon": "-70.9500", "elev": "22.9", "state": "NH", "name": "DURHAM"}, "USC00272999": {"id": "USC00272999", "lat": "45.0900", "lon": "-71.2906", "elev": "502.9", "state": "NH", "name": "FIRST CONNECTICUT LAKE"}, "USC00273850": {"id": "USC00273850", "lat": "43.7053", "lon": "-72.2856", "elev": "178.0", "state": "NH", "name": "HANOVER"}, "USC00274399": {"id": "USC00274399", "lat": "42.9389", "lon": "-72.3247", "elev": "155.8", "state": "NH", "name": "KEENE"}, "USC00280734": {"id": "USC00280734", "lat": "40.8292", "lon": "-75.0833", "elev": "80.2", "state": "NJ", "name": "BELVIDERE BRG"}, "USC00280907": {"id": "USC00280907", "lat": "40.8917", "lon": "-74.3964", "elev": "85.3", "state": "NJ", "name": "BOONTON 1 SE"}, "USC00281582": {"id": "USC00281582", "lat": "41.0300", "lon": "-74.4247", "elev": "237.1", "state": "NJ", "name": "CHARLOTTEBURG RSVR"}, "USC00283029": {"id": "USC00283029", "lat": "40.5739", "lon": "-74.8817", "elev": "80.8", "state": "NJ", "name": "FLEMINGTON 5 NNW"}, "USC00283951": {"id": "USC00283951", "lat": "40.2664", "lon": "-74.5642", "elev": "30.5", "state": "NJ", "name": "HIGHTSTOWN 2 W"}, "USC00284229": {"id": "USC00284229", "lat": "39.7994", "lon": "-74.7806", "elev": "30.5", "state": "NJ", "name": "INDIAN MILLS 2 W"}, "USC00284987": {"id": "USC00284987", "lat": "40.2969", "lon": "-74.0017", "elev": "9.1", "state": "NJ", "name": "LONG BRANCH-OAKHURST"}, "USC00285728": {"id": "USC00285728", "lat": "39.9511", "lon": "-74.9697", "elev": "13.7", "state": "NJ", "name": "MOORESTOWN"}, "USC00286055": {"id": "USC00286055", "lat": "40.4728", "lon": "-74.4225", "elev": "33.8", "state": "NJ", "name": "NEW BRUNSWICK 3 SE"}, "USC00287079": {"id": "USC00287079", "lat": "40.6036", "lon": "-74.4025", "elev": "27.4", "state": "NJ", "name": "PLAINFIELD"}, "USC00288816": {"id": "USC00288816", "lat": "39.9500", "lon": "-74.2167", "elev": "3.0", "state": "NJ", "name": "TOMS RIVER"}, "USC00290692": {"id": "USC00290692", "lat": "36.8350", "lon": "-108.0006", "elev": "1720.3", "state": "NM", "name": "AZTEC RUINS NM"}, "USC00290858": {"id": "USC00290858", "lat": "35.5297", "lon": "-104.0936", "elev": "1371.6", "state": "NM", "name": "BELL RANCH"}, "USC00291469": {"id": "USC00291469", "lat": "32.3478", "lon": "-104.2225", "elev": "951.0", "state": "NM", "name": "CARLSBAD"}, "USC00291515": {"id": "USC00291515", "lat": "33.6308", "lon": "-105.8964", "elev": "1647.4", "state": "NM", "name": "CARRIZOZO 1SW"}, "USC00291664": {"id": "USC00291664", "lat": "36.9178", "lon": "-106.5781", "elev": "2392.7", "state": "NM", "name": "CHAMA"}, "USC00291813": {"id": "USC00291813", "lat": "36.4661", "lon": "-104.9456", "elev": "1993.4", "state": "NM", "name": "CIMARRON 4 SW"}, "USC00292608": {"id": "USC00292608", "lat": "36.9358", "lon": "-107.0000", "elev": "2070.5", "state": "NM", "name": "DULCE"}, "USC00292848": {"id": "USC00292848", "lat": "33.1461", "lon": "-107.1842", "elev": "1393.2", "state": "NM", "name": "ELEPHANT BUTTE DAM"}, "USC00293265": {"id": "USC00293265", "lat": "32.7939", "lon": "-108.1514", "elev": "1859.0", "state": "NM", "name": "FT BAYARD"}, "USC00293294": {"id": "USC00293294", "lat": "34.4667", "lon": "-104.2319", "elev": "1226.8", "state": "NM", "name": "FT SUMNER"}, "USC00293368": {"id": "USC00293368", "lat": "32.2261", "lon": "-108.0867", "elev": "1365.2", "state": "NM", "name": "GAGE"}, "USC00294369": {"id": "USC00294369", "lat": "35.7783", "lon": "-106.6872", "elev": "1908.7", "state": "NM", "name": "JEMEZ SPRINGS"}, "USC00294426": {"id": "USC00294426", "lat": "32.6161", "lon": "-106.7403", "elev": "1316.1", "state": "NM", "name": "JORNADA EXP RANGE"}, "USC00294862": {"id": "USC00294862", "lat": "35.5678", "lon": "-105.2131", "elev": "1935.2", "state": "NM", "name": "LAS VEGAS WWTP"}, "USC00295150": {"id": "USC00295150", "lat": "34.7675", "lon": "-106.7611", "elev": "1475.2", "state": "NM", "name": "LOS LUNAS 3 SSW"}, "USC00295273": {"id": "USC00295273", "lat": "33.8225", "lon": "-108.9417", "elev": "2148.8", "state": "NM", "name": "LUNA RS"}, "USC00295960": {"id": "USC00295960", "lat": "32.9539", "lon": "-105.8225", "elev": "2073.9", "state": "NM", "name": "MTN PARK"}, "USC00295965": {"id": "USC00295965", "lat": "34.5208", "lon": "-106.2606", "elev": "1987.3", "state": "NM", "name": "MOUNTAINAIR"}, "USC00296435": {"id": "USC00296435", "lat": "32.3789", "lon": "-106.0925", "elev": "1286.6", "state": "NM", "name": "OROGRANDE"}, "USC00297323": {"id": "USC00297323", "lat": "36.7100", "lon": "-105.4164", "elev": "2641.7", "state": "NM", "name": "RED RIVER"}, "USC00297867": {"id": "USC00297867", "lat": "35.1086", "lon": "-103.3283", "elev": "1289.3", "state": "NM", "name": "SAN JON"}, "USC00298107": {"id": "USC00298107", "lat": "34.9358", "lon": "-104.6805", "elev": "1405.1", "state": "NM", "name": "SANTA ROSA"}, "USC00298387": {"id": "USC00298387", "lat": "34.0828", "lon": "-106.8831", "elev": "1397.5", "state": "NM", "name": "SOCORRO"}, "USC00298501": {"id": "USC00298501", "lat": "36.3628", "lon": "-104.5850", "elev": "1794.7", "state": "NM", "name": "SPRINGER"}, "USC00298535": {"id": "USC00298535", "lat": "32.2822", "lon": "-106.7597", "elev": "1184.5", "state": "NM", "name": "STATE UNIV"}, "USC00299156": {"id": "USC00299156", "lat": "35.2006", "lon": "-103.6867", "elev": "1245.4", "state": "NM", "name": "TUCUMCARI 4 NE"}, "USC00299165": {"id": "USC00299165", "lat": "33.0719", "lon": "-106.0411", "elev": "1347.8", "state": "NM", "name": "TULAROSA"}, "USC00300023": {"id": "USC00300023", "lat": "42.1014", "lon": "-77.2344", "elev": "304.5", "state": "NY", "name": "ADDISON"}, "USC00300085": {"id": "USC00300085", "lat": "42.2797", "lon": "-77.7656", "elev": "586.4", "state": "NY", "name": "ALFRED"}, "USC00300093": {"id": "USC00300093", "lat": "42.1003", "lon": "-78.7497", "elev": "457.2", "state": "NY", "name": "ALLEGANY SP"}, "USC00300183": {"id": "USC00300183", "lat": "42.3108", "lon": "-78.0231", "elev": "449.6", "state": "NY", "name": "ANGELICA"}, "USC00300321": {"id": "USC00300321", "lat": "42.9328", "lon": "-76.5447", "elev": "234.7", "state": "NY", "name": "AUBURN"}, "USC00300443": {"id": "USC00300443", "lat": "43.0297", "lon": "-78.1683", "elev": "278.3", "state": "NY", "name": "BATAVIA"}, "USC00300889": {"id": "USC00300889", "lat": "40.9519", "lon": "-72.2981", "elev": "12.8", "state": "NY", "name": "BRIDGEHAMPTON"}, "USC00300937": {"id": "USC00300937", "lat": "43.2161", "lon": "-77.9528", "elev": "151.8", "state": "NY", "name": "BROCKPORT"}, "USC00301401": {"id": "USC00301401", "lat": "44.8786", "lon": "-73.3953", "elev": "47.9", "state": "NY", "name": "CHAZY"}, "USC00301752": {"id": "USC00301752", "lat": "42.7167", "lon": "-74.9267", "elev": "383.1", "state": "NY", "name": "COOPERSTOWN"}, "USC00301799": {"id": "USC00301799", "lat": "42.6000", "lon": "-76.1833", "elev": "344.1", "state": "NY", "name": "CORTLAND"}, "USC00301966": {"id": "USC00301966", "lat": "44.7192", "lon": "-73.7206", "elev": "408.4", "state": "NY", "name": "DANNEMORA"}, "USC00301974": {"id": "USC00301974", "lat": "42.5647", "lon": "-77.7175", "elev": "201.2", "state": "NY", "name": "DANSVILLE"}, "USC00302060": {"id": "USC00302060", "lat": "42.0628", "lon": "-75.4264", "elev": "304.8", "state": "NY", "name": "DEPOSIT"}, "USC00302129": {"id": "USC00302129", "lat": "41.0072", "lon": "-73.8344", "elev": "61.0", "state": "NY", "name": "DOBBS FERRY-ARDSLEY"}, "USC00302610": {"id": "USC00302610", "lat": "42.0997", "lon": "-76.8358", "elev": "288.6", "state": "NY", "name": "ELMIRA"}, "USC00303033": {"id": "USC00303033", "lat": "42.4497", "lon": "-79.3120", "elev": "231.6", "state": "NY", "name": "FREDONIA"}, "USC00303184": {"id": "USC00303184", "lat": "42.8767", "lon": "-77.0308", "elev": "218.8", "state": "NY", "name": "GENEVA RSCH FARM"}, "USC00303259": {"id": "USC00303259", "lat": "41.5167", "lon": "-73.9333", "elev": "83.8", "state": "NY", "name": "GLENHAM"}, "USC00303319": {"id": "USC00303319", "lat": "43.0492", "lon": "-74.3592", "elev": "246.9", "state": "NY", "name": "GLOVERSVILLE"}, "USC00303773": {"id": "USC00303773", "lat": "42.7742", "lon": "-77.6083", "elev": "274.9", "state": "NY", "name": "HEMLOCK"}, "USC00304102": {"id": "USC00304102", "lat": "43.7547", "lon": "-74.2756", "elev": "509.0", "state": "NY", "name": "INDIAN LAKE 2SW"}, "USC00304174": {"id": "USC00304174", "lat": "42.4492", "lon": "-76.4492", "elev": "292.6", "state": "NY", "name": "ITHACA CORNELL UNIV"}, "USC00304555": {"id": "USC00304555", "lat": "44.3042", "lon": "-73.9839", "elev": "575.5", "state": "NY", "name": "LAKE PLACID 2 S"}, "USC00304647": {"id": "USC00304647", "lat": "44.7583", "lon": "-74.6692", "elev": "142.0", "state": "NY", "name": "LAWRENCEVILLE 3 SW"}, "USC00304791": {"id": "USC00304791", "lat": "43.0603", "lon": "-74.8686", "elev": "272.2", "state": "NY", "name": "LITTLE FALLS CITY RSCH"}, "USC00304796": {"id": "USC00304796", "lat": "43.0333", "lon": "-74.8667", "elev": "109.7", "state": "NY", "name": "LITTLE FALLS MILL ST"}, "USC00304844": {"id": "USC00304844", "lat": "43.1878", "lon": "-78.6092", "elev": "185.9", "state": "NY", "name": "LOCKPORT 4E"}, "USC00304912": {"id": "USC00304912", "lat": "43.7928", "lon": "-75.4828", "elev": "263.0", "state": "NY", "name": "LOWVILLE"}, "USC00304996": {"id": "USC00304996", "lat": "44.8419", "lon": "-74.3081", "elev": "268.2", "state": "NY", "name": "MALONE"}, "USC00305113": {"id": "USC00305113", "lat": "42.4694", "lon": "-75.0106", "elev": "373.4", "state": "NY", "name": "EMMONS"}, "USC00305426": {"id": "USC00305426", "lat": "41.7681", "lon": "-74.1550", "elev": "379.5", "state": "NY", "name": "MOHONK LAKE"}, "USC00305512": {"id": "USC00305512", "lat": "42.8417", "lon": "-75.7264", "elev": "512.4", "state": "NY", "name": "MORRISVILLE 6 SW"}, "USC00306085": {"id": "USC00306085", "lat": "42.5117", "lon": "-75.5197", "elev": "301.4", "state": "NY", "name": "NORWICH"}, "USC00306164": {"id": "USC00306164", "lat": "44.7281", "lon": "-75.4442", "elev": "85.3", "state": "NY", "name": "OGDENSBURG 4 NE"}, "USC00306314": {"id": "USC00306314", "lat": "43.4622", "lon": "-76.4933", "elev": "106.7", "state": "NY", "name": "OSWEGO E"}, "USC00306774": {"id": "USC00306774", "lat": "41.3892", "lon": "-74.6906", "elev": "176.8", "state": "NY", "name": "PORT JERVIS"}, "USC00307484": {"id": "USC00307484", "lat": "43.0411", "lon": "-73.8211", "elev": "99.4", "state": "NY", "name": "SARATOGA SPRINGS 4 SW"}, "USC00307633": {"id": "USC00307633", "lat": "40.9586", "lon": "-73.1047", "elev": "12.2", "state": "NY", "name": "SETAUKET STRONG"}, "USC00308248": {"id": "USC00308248", "lat": "43.9000", "lon": "-75.0367", "elev": "515.1", "state": "NY", "name": "STILLWATER RSVR"}, "USC00308600": {"id": "USC00308600", "lat": "42.7508", "lon": "-73.6856", "elev": "7.3", "state": "NY", "name": "TROY L&D"}, "USC00308631": {"id": "USC00308631", "lat": "44.2308", "lon": "-74.4383", "elev": "512.1", "state": "NY", "name": "TUPPER LAKE SUNMOUNT"}, "USC00308906": {"id": "USC00308906", "lat": "41.5514", "lon": "-74.1628", "elev": "115.8", "state": "NY", "name": "WALDEN 1 ESE"}, "USC00308910": {"id": "USC00308910", "lat": "42.7392", "lon": "-78.5878", "elev": "345.9", "state": "NY", "name": "WALES"}, "USC00308944": {"id": "USC00308944", "lat": "44.1481", "lon": "-74.9003", "elev": "460.2", "state": "NY", "name": "WANAKENA RNGR SCHOOL"}, "USC00309000": {"id": "USC00309000", "lat": "43.9761", "lon": "-75.8753", "elev": "151.5", "state": "NY", "name": "WATERTOWN"}, "USC00309292": {"id": "USC00309292", "lat": "41.3906", "lon": "-73.9608", "elev": "97.5", "state": "NY", "name": "WEST POINT"}, "USC00309670": {"id": "USC00309670", "lat": "41.2664", "lon": "-73.7975", "elev": "204.2", "state": "NY", "name": "YORKTOWN HTS 1W"}, "USC00310090": {"id": "USC00310090", "lat": "35.3992", "lon": "-80.1994", "elev": "185.9", "state": "NC", "name": "ALBEMARLE"}, "USC00311677": {"id": "USC00311677", "lat": "35.9086", "lon": "-79.0794", "elev": "152.4", "state": "NC", "name": "CHAPEL HILL 2 W"}, "USC00312635": {"id": "USC00312635", "lat": "36.0164", "lon": "-76.5517", "elev": "3.0", "state": "NC", "name": "EDENTON"}, "USC00312719": {"id": "USC00312719", "lat": "36.3097", "lon": "-76.2050", "elev": "2.4", "state": "NC", "name": "ELIZABETH CITY"}, "USC00313017": {"id": "USC00313017", "lat": "35.0583", "lon": "-78.8583", "elev": "29.3", "state": "NC", "name": "FAYETTEVILLE (PWC)"}, "USC00313969": {"id": "USC00313969", "lat": "36.3481", "lon": "-78.4119", "elev": "146.3", "state": "NC", "name": "HENDERSON 2 NNW"}, "USC00313976": {"id": "USC00313976", "lat": "35.3297", "lon": "-82.4492", "elev": "658.4", "state": "NC", "name": "HENDERSONVILLE 1 NE"}, "USC00314055": {"id": "USC00314055", "lat": "35.0564", "lon": "-83.1983", "elev": "1173.5", "state": "NC", "name": "HIGHLANDS"}, "USC00314684": {"id": "USC00314684", "lat": "35.1967", "lon": "-77.5433", "elev": "7.3", "state": "NC", "name": "KINSTON 7 SE"}, "USC00314938": {"id": "USC00314938", "lat": "35.9147", "lon": "-81.5375", "elev": "352.0", "state": "NC", "name": "LENOIR"}, "USC00315123": {"id": "USC00315123", "lat": "36.1028", "lon": "-78.3039", "elev": "79.2", "state": "NC", "name": "LOUISBURG"}, "USC00315177": {"id": "USC00315177", "lat": "34.6269", "lon": "-79.0250", "elev": "34.1", "state": "NC", "name": "LUMBERTON"}, "USC00315340": {"id": "USC00315340", "lat": "35.6847", "lon": "-82.0083", "elev": "429.8", "state": "NC", "name": "MARION"}, "USC00315356": {"id": "USC00315356", "lat": "35.8033", "lon": "-82.6658", "elev": "585.2", "state": "NC", "name": "MARSHALL"}, "USC00315771": {"id": "USC00315771", "lat": "34.9797", "lon": "-80.5233", "elev": "167.6", "state": "NC", "name": "MONROE 2 SE"}, "USC00315830": {"id": "USC00315830", "lat": "34.7336", "lon": "-76.7358", "elev": "3.0", "state": "NC", "name": "MOREHEAD CITY 2 WNW"}, "USC00315838": {"id": "USC00315838", "lat": "35.7297", "lon": "-81.6728", "elev": "359.7", "state": "NC", "name": "MORGANTON"}, "USC00315890": {"id": "USC00315890", "lat": "36.4961", "lon": "-80.6522", "elev": "329.2", "state": "NC", "name": "MT AIRY 2 W"}, "USC00317202": {"id": "USC00317202", "lat": "36.3797", "lon": "-79.6944", "elev": "271.3", "state": "NC", "name": "REIDSVILLE 2 NW"}, "USC00317615": {"id": "USC00317615", "lat": "35.6836", "lon": "-80.4822", "elev": "213.4", "state": "NC", "name": "SALISBURY"}, "USC00317994": {"id": "USC00317994", "lat": "35.5172", "lon": "-78.3442", "elev": "45.7", "state": "NC", "name": "SMITHFIELD"}, "USC00318113": {"id": "USC00318113", "lat": "33.9947", "lon": "-78.0078", "elev": "6.1", "state": "NC", "name": "SOUTHPORT 5 N"}, "USC00318292": {"id": "USC00318292", "lat": "35.8100", "lon": "-80.8808", "elev": "244.8", "state": "NC", "name": "STATESVILLE 2 NNE"}, "USC00318500": {"id": "USC00318500", "lat": "35.8847", "lon": "-77.5386", "elev": "10.7", "state": "NC", "name": "TARBORO 1 S"}, "USC00318694": {"id": "USC00318694", "lat": "36.4003", "lon": "-81.3053", "elev": "863.8", "state": "NC", "name": "TRANSOU"}, "USC00319147": {"id": "USC00319147", "lat": "35.4867", "lon": "-82.9681", "elev": "810.2", "state": "NC", "name": "WAYNESVILLE 1 E"}, "USC00319476": {"id": "USC00319476", "lat": "35.6939", "lon": "-77.9461", "elev": "33.5", "state": "NC", "name": "WILSON 3 SW"}, "USC00320941": {"id": "USC00320941", "lat": "48.8217", "lon": "-100.4528", "elev": "493.5", "state": "ND", "name": "BOTTINEAU"}, "USC00321408": {"id": "USC00321408", "lat": "46.8769", "lon": "-97.2328", "elev": "285.0", "state": "ND", "name": "CASSELTON AGRONOMY FARM"}, "USC00321871": {"id": "USC00321871", "lat": "48.9144", "lon": "-103.2978", "elev": "597.1", "state": "ND", "name": "CROSBY"}, "USC00322188": {"id": "USC00322188", "lat": "46.8914", "lon": "-102.7792", "elev": "749.8", "state": "ND", "name": "DICKINSON"}, "USC00322365": {"id": "USC00322365", "lat": "47.3467", "lon": "-102.5869", "elev": "671.8", "state": "ND", "name": "DUNN CENTER  1E"}, "USC00323207": {"id": "USC00323207", "lat": "46.0500", "lon": "-100.6667", "elev": "510.5", "state": "ND", "name": "FT YATES 4 SW"}, "USC00323287": {"id": "USC00323287", "lat": "46.1581", "lon": "-98.4000", "elev": "437.4", "state": "ND", "name": "FULLERTON 1 ESE"}, "USC00323594": {"id": "USC00323594", "lat": "48.4181", "lon": "-97.4247", "elev": "252.1", "state": "ND", "name": "GRAFTON"}, "USC00323621": {"id": "USC00323621", "lat": "47.9217", "lon": "-97.0975", "elev": "253.0", "state": "ND", "name": "GRAND FORKS UNIV (NWS)"}, "USC00324178": {"id": "USC00324178", "lat": "45.9925", "lon": "-102.6442", "elev": "816.9", "state": "ND", "name": "HETTINGER"}, "USC00324203": {"id": "USC00324203", "lat": "47.4389", "lon": "-97.0664", "elev": "277.4", "state": "ND", "name": "HILLSBORO 3 N"}, "USC00324418": {"id": "USC00324418", "lat": "46.8844", "lon": "-98.6850", "elev": "447.1", "state": "ND", "name": "JAMESTOWN STATE HOSP"}, "USC00324958": {"id": "USC00324958", "lat": "48.7622", "lon": "-98.3447", "elev": "492.3", "state": "ND", "name": "LANGDON EXP FARM"}, "USC00325220": {"id": "USC00325220", "lat": "46.4444", "lon": "-97.6928", "elev": "350.2", "state": "ND", "name": "LISBON"}, "USC00325479": {"id": "USC00325479", "lat": "46.8128", "lon": "-100.9097", "elev": "533.4", "state": "ND", "name": "MANDAN EXP STN"}, "USC00326015": {"id": "USC00326015", "lat": "46.6706", "lon": "-100.2294", "elev": "548.6", "state": "ND", "name": "MOFFIT 3 SE"}, "USC00326155": {"id": "USC00326155", "lat": "46.3747", "lon": "-102.3211", "elev": "739.4", "state": "ND", "name": "MOTT"}, "USC00326255": {"id": "USC00326255", "lat": "46.5067", "lon": "-99.7692", "elev": "603.5", "state": "ND", "name": "NAPOLEON"}, "USC00326315": {"id": "USC00326315", "lat": "46.5414", "lon": "-102.8692", "elev": "804.4", "state": "ND", "name": "NEW ENGLAND"}, "USC00327530": {"id": "USC00327530", "lat": "46.8886", "lon": "-102.3192", "elev": "752.9", "state": "ND", "name": "RICHARDTON ABBEY"}, "USC00328792": {"id": "USC00328792", "lat": "48.3706", "lon": "-100.3908", "elev": "451.1", "state": "ND", "name": "TOWNER 2 NE"}, "USC00329100": {"id": "USC00329100", "lat": "46.3233", "lon": "-96.6108", "elev": "291.4", "state": "ND", "name": "WAHPETON 3 N"}, "USC00329445": {"id": "USC00329445", "lat": "48.6061", "lon": "-100.2911", "elev": "449.0", "state": "ND", "name": "WILLOW CITY"}, "USC00331072": {"id": "USC00331072", "lat": "40.8125", "lon": "-82.9697", "elev": "291.1", "state": "OH", "name": "BUCYRUS"}, "USC00331152": {"id": "USC00331152", "lat": "40.2686", "lon": "-80.9981", "elev": "384.0", "state": "OH", "name": "CADIZ"}, "USC00331541": {"id": "USC00331541", "lat": "41.0517", "lon": "-81.9361", "elev": "359.7", "state": "OH", "name": "CHIPPEWA LAKE"}, "USC00331592": {"id": "USC00331592", "lat": "39.6103", "lon": "-82.9556", "elev": "205.7", "state": "OH", "name": "CIRCLEVILLE"}, "USC00331890": {"id": "USC00331890", "lat": "40.2403", "lon": "-81.8711", "elev": "231.6", "state": "OH", "name": "COSHOCTON WPC PLT"}, "USC00332098": {"id": "USC00332098", "lat": "41.2783", "lon": "-84.3847", "elev": "213.4", "state": "OH", "name": "DEFIANCE"}, "USC00332119": {"id": "USC00332119", "lat": "40.3175", "lon": "-83.0739", "elev": "280.4", "state": "OH", "name": "DELAWARE"}, "USC00332791": {"id": "USC00332791", "lat": "41.0461", "lon": "-83.6622", "elev": "234.1", "state": "OH", "name": "FINDLAY WPCC"}, "USC00333375": {"id": "USC00333375", "lat": "40.1033", "lon": "-84.6503", "elev": "313.9", "state": "OH", "name": "GREENVILLE WTP"}, "USC00333758": {"id": "USC00333758", "lat": "39.2333", "lon": "-83.6092", "elev": "290.5", "state": "OH", "name": "HILLSBORO"}, "USC00333780": {"id": "USC00333780", "lat": "41.3072", "lon": "-81.0133", "elev": "374.9", "state": "OH", "name": "HIRAM"}, "USC00334189": {"id": "USC00334189", "lat": "40.6486", "lon": "-83.6061", "elev": "303.9", "state": "OH", "name": "KENTON"}, "USC00335041": {"id": "USC00335041", "lat": "39.6522", "lon": "-81.8561", "elev": "231.6", "state": "OH", "name": "MC CONNELLSVILLE LK 7"}, "USC00335297": {"id": "USC00335297", "lat": "40.5375", "lon": "-81.9197", "elev": "249.6", "state": "OH", "name": "MILLERSBURG"}, "USC00335315": {"id": "USC00335315", "lat": "40.7692", "lon": "-80.8561", "elev": "356.6", "state": "OH", "name": "MILLPORT 4 NE"}, "USC00336118": {"id": "USC00336118", "lat": "41.2667", "lon": "-82.6167", "elev": "204.2", "state": "OH", "name": "NORWALK WWTP"}, "USC00336196": {"id": "USC00336196", "lat": "41.2803", "lon": "-82.2186", "elev": "248.7", "state": "OH", "name": "OBERLIN"}, "USC00336600": {"id": "USC00336600", "lat": "39.8386", "lon": "-81.9167", "elev": "310.9", "state": "OH", "name": "PHILO 3 SW"}, "USC00336781": {"id": "USC00336781", "lat": "38.7569", "lon": "-82.8872", "elev": "164.6", "state": "OH", "name": "PORTSMOUTH-SCIOTOVILLE"}, "USC00338313": {"id": "USC00338313", "lat": "41.1167", "lon": "-83.1667", "elev": "225.6", "state": "OH", "name": "TIFFIN"}, "USC00338534": {"id": "USC00338534", "lat": "40.8333", "lon": "-83.2833", "elev": "260.3", "state": "OH", "name": "UPPER SANDUSKY"}, "USC00338552": {"id": "USC00338552", "lat": "40.0992", "lon": "-83.7822", "elev": "310.6", "state": "OH", "name": "URBANA WWTP"}, "USC00338769": {"id": "USC00338769", "lat": "41.2019", "lon": "-80.8106", "elev": "274.3", "state": "OH", "name": "WARREN 3 S"}, "USC00338822": {"id": "USC00338822", "lat": "41.5183", "lon": "-84.1453", "elev": "228.6", "state": "OH", "name": "WAUSEON WTP"}, "USC00338830": {"id": "USC00338830", "lat": "39.1114", "lon": "-82.9797", "elev": "174.3", "state": "OH", "name": "WAVERLY"}, "USC00339312": {"id": "USC00339312", "lat": "40.7833", "lon": "-81.9167", "elev": "310.9", "state": "OH", "name": "WOOSTER EXP STATION"}, "USC00340017": {"id": "USC00340017", "lat": "34.7864", "lon": "-96.6850", "elev": "309.4", "state": "OK", "name": "ADA"}, "USC00340179": {"id": "USC00340179", "lat": "34.5903", "lon": "-99.3344", "elev": "420.6", "state": "OK", "name": "ALTUS IRIG RSCH STN"}, "USC00340256": {"id": "USC00340256", "lat": "34.2208", "lon": "-95.6150", "elev": "143.3", "state": "OK", "name": "ANTLERS"}, "USC00340292": {"id": "USC00340292", "lat": "34.1772", "lon": "-97.1617", "elev": "256.3", "state": "OK", "name": "ARDMORE"}, "USC00340593": {"id": "USC00340593", "lat": "36.8125", "lon": "-100.5308", "elev": "751.3", "state": "OK", "name": "BEAVER"}, "USC00340908": {"id": "USC00340908", "lat": "36.7236", "lon": "-102.4806", "elev": "1259.7", "state": "OK", "name": "BOISE CITY 2 E"}, "USC00341243": {"id": "USC00341243", "lat": "36.8003", "lon": "-99.6400", "elev": "588.6", "state": "OK", "name": "BUFFALO 2 SSW"}, "USC00341504": {"id": "USC00341504", "lat": "35.1756", "lon": "-98.5794", "elev": "451.4", "state": "OK", "name": "CARNEGIE 5 NE"}, "USC00341724": {"id": "USC00341724", "lat": "36.7672", "lon": "-98.4244", "elev": "377.6", "state": "OK", "name": "CHEROKEE 4W"}, "USC00341828": {"id": "USC00341828", "lat": "36.3225", "lon": "-95.5808", "elev": "179.2", "state": "OK", "name": "CLAREMORE 2 ENE"}, "USC00342678": {"id": "USC00342678", "lat": "34.0000", "lon": "-96.3686", "elev": "182.9", "state": "OK", "name": "DURANT"}, "USC00342912": {"id": "USC00342912", "lat": "36.4194", "lon": "-97.8747", "elev": "379.5", "state": "OK", "name": "ENID"}, "USC00342944": {"id": "USC00342944", "lat": "35.2164", "lon": "-99.8628", "elev": "627.9", "state": "OK", "name": "ERICK"}, "USC00343497": {"id": "USC00343497", "lat": "35.6306", "lon": "-98.3217", "elev": "478.8", "state": "OK", "name": "GEARY"}, "USC00343628": {"id": "USC00343628", "lat": "36.5914", "lon": "-101.6181", "elev": "999.1", "state": "OK", "name": "GOODWELL RSCH STN"}, "USC00343821": {"id": "USC00343821", "lat": "35.8161", "lon": "-97.3950", "elev": "338.3", "state": "OK", "name": "GUTHRIE 5S"}, "USC00343871": {"id": "USC00343871", "lat": "35.5850", "lon": "-99.3953", "elev": "554.7", "state": "OK", "name": "HAMMON 3 SSW"}, "USC00344055": {"id": "USC00344055", "lat": "36.0942", "lon": "-97.8350", "elev": "357.8", "state": "OK", "name": "HENNESSEY 4 ESE"}, "USC00344235": {"id": "USC00344235", "lat": "35.0567", "lon": "-96.3861", "elev": "260.6", "state": "OK", "name": "HOLDENVILLE 2SSE"}, "USC00344298": {"id": "USC00344298", "lat": "36.8650", "lon": "-101.2103", "elev": "911.4", "state": "OK", "name": "HOOKER"}, "USC00344573": {"id": "USC00344573", "lat": "36.7222", "lon": "-97.7903", "elev": "318.5", "state": "OK", "name": "JEFFERSON"}, "USC00344766": {"id": "USC00344766", "lat": "36.9031", "lon": "-102.9650", "elev": "1325.9", "state": "OK", "name": "KENTON"}, "USC00344861": {"id": "USC00344861", "lat": "35.8583", "lon": "-97.9294", "elev": "320.0", "state": "OK", "name": "KINGFISHER"}, "USC00345063": {"id": "USC00345063", "lat": "34.6097", "lon": "-98.4572", "elev": "350.5", "state": "OK", "name": "LAWTON"}, "USC00345509": {"id": "USC00345509", "lat": "34.8911", "lon": "-99.5017", "elev": "486.2", "state": "OK", "name": "MANGUM"}, "USC00345779": {"id": "USC00345779", "lat": "35.5050", "lon": "-96.9772", "elev": "281.9", "state": "OK", "name": "MEEKER 5 W"}, "USC00345855": {"id": "USC00345855", "lat": "36.8833", "lon": "-94.8833", "elev": "245.4", "state": "OK", "name": "MIAMI"}, "USC00346130": {"id": "USC00346130", "lat": "35.7781", "lon": "-95.3339", "elev": "157.9", "state": "OK", "name": "MUSKOGEE"}, "USC00346139": {"id": "USC00346139", "lat": "36.2283", "lon": "-99.1700", "elev": "576.1", "state": "OK", "name": "MUTUAL"}, "USC00346278": {"id": "USC00346278", "lat": "36.9425", "lon": "-97.0036", "elev": "344.7", "state": "OK", "name": "NEWKIRK 5NE"}, "USC00346629": {"id": "USC00346629", "lat": "36.1217", "lon": "-98.3150", "elev": "370.3", "state": "OK", "name": "OKEENE"}, "USC00346638": {"id": "USC00346638", "lat": "35.4253", "lon": "-96.3033", "elev": "285.0", "state": "OK", "name": "OKEMAH"}, "USC00346670": {"id": "USC00346670", "lat": "35.6239", "lon": "-96.0250", "elev": "197.2", "state": "OK", "name": "OKMULGEE WTR WKS"}, "USC00346926": {"id": "USC00346926", "lat": "34.7253", "lon": "-97.2814", "elev": "286.5", "state": "OK", "name": "PAULS VALLEY 4 WSW"}, "USC00346935": {"id": "USC00346935", "lat": "36.6692", "lon": "-96.3472", "elev": "254.5", "state": "OK", "name": "PAWHUSKA"}, "USC00347012": {"id": "USC00347012", "lat": "36.2886", "lon": "-97.2897", "elev": "312.4", "state": "OK", "name": "PERRY"}, "USC00347254": {"id": "USC00347254", "lat": "35.0539", "lon": "-94.6264", "elev": "134.1", "state": "OK", "name": "POTEAU WTR WKS"}, "USC00348501": {"id": "USC00348501", "lat": "36.1175", "lon": "-97.0950", "elev": "272.8", "state": "OK", "name": "STILLWATER 2 W"}, "USC00348677": {"id": "USC00348677", "lat": "35.9369", "lon": "-94.9644", "elev": "259.1", "state": "OK", "name": "TAHLEQUAH"}, "USC00349395": {"id": "USC00349395", "lat": "34.1747", "lon": "-97.9964", "elev": "278.0", "state": "OK", "name": "WAURIKA"}, "USC00349422": {"id": "USC00349422", "lat": "35.5200", "lon": "-98.6986", "elev": "493.2", "state": "OK", "name": "WEATHERFORD"}, "USC00349445": {"id": "USC00349445", "lat": "35.4814", "lon": "-95.2039", "elev": "167.6", "state": "OK", "name": "WEBBERS FALLS 5 WSW"}, "USC00350304": {"id": "USC00350304", "lat": "42.2128", "lon": "-122.7144", "elev": "532.2", "state": "OR", "name": "ASHLAND"}, "USC00350694": {"id": "USC00350694", "lat": "44.0569", "lon": "-121.2850", "elev": "1115.6", "state": "OR", "name": "BEND"}, "USC00351055": {"id": "USC00351055", "lat": "42.0300", "lon": "-124.2453", "elev": "15.2", "state": "OR", "name": "BROOKINGS 2 SE"}, "USC00351433": {"id": "USC00351433", "lat": "44.3914", "lon": "-122.4811", "elev": "292.6", "state": "OR", "name": "CASCADIA"}, "USC00351765": {"id": "USC00351765", "lat": "45.2408", "lon": "-120.1789", "elev": "878.1", "state": "OR", "name": "CONDON"}, "USC00351862": {"id": "USC00351862", "lat": "44.6342", "lon": "-123.1900", "elev": "68.6", "state": "OR", "name": "CORVALLIS STATE UNIV"}, "USC00351897": {"id": "USC00351897", "lat": "43.7917", "lon": "-123.0275", "elev": "181.4", "state": "OR", "name": "COTTAGE GROVE 2E"}, "USC00351946": {"id": "USC00351946", "lat": "42.8967", "lon": "-122.1328", "elev": "1973.6", "state": "OR", "name": "CRATER LAKE NPS HQ"}, "USC00352135": {"id": "USC00352135", "lat": "42.9447", "lon": "-117.3389", "elev": "1287.8", "state": "OR", "name": "DANNER"}, "USC00352406": {"id": "USC00352406", "lat": "43.6656", "lon": "-123.3275", "elev": "89.0", "state": "OR", "name": "DRAIN"}, "USC00352440": {"id": "USC00352440", "lat": "45.4539", "lon": "-121.1303", "elev": "405.4", "state": "OR", "name": "DUFUR"}, "USC00352997": {"id": "USC00352997", "lat": "45.5247", "lon": "-123.1025", "elev": "54.9", "state": "OR", "name": "FOREST GROVE"}, "USC00353095": {"id": "USC00353095", "lat": "43.3936", "lon": "-121.2122", "elev": "1404.8", "state": "OR", "name": "FREMONT 5 NW"}, "USC00353445": {"id": "USC00353445", "lat": "42.4244", "lon": "-123.3236", "elev": "283.5", "state": "OR", "name": "GRANTS PASS"}, "USC00353770": {"id": "USC00353770", "lat": "45.4486", "lon": "-122.1547", "elev": "228.0", "state": "OR", "name": "HEADWORKS PORTLAND WTR B"}, "USC00353827": {"id": "USC00353827", "lat": "45.3653", "lon": "-119.5639", "elev": "574.5", "state": "OR", "name": "HEPPNER"}, "USC00353847": {"id": "USC00353847", "lat": "45.8289", "lon": "-119.2636", "elev": "195.1", "state": "OR", "name": "HERMISTON 1 SE"}, "USC00354003": {"id": "USC00354003", "lat": "45.6847", "lon": "-121.5175", "elev": "152.4", "state": "OR", "name": "HOOD RVR EXP STN"}, "USC00354506": {"id": "USC00354506", "lat": "42.2008", "lon": "-121.7814", "elev": "1249.1", "state": "OR", "name": "KLAMATH FALLS 2 SSW"}, "USC00354670": {"id": "USC00354670", "lat": "42.2414", "lon": "-120.3678", "elev": "1490.5", "state": "OR", "name": "LAKEVIEW 2 NNW"}, "USC00355162": {"id": "USC00355162", "lat": "43.2650", "lon": "-118.8447", "elev": "1255.2", "state": "OR", "name": "MALHEUR REFUGE HQ"}, "USC00355362": {"id": "USC00355362", "lat": "44.1792", "lon": "-122.1164", "elev": "450.5", "state": "OR", "name": "MCKENZIE RVR RS"}, "USC00355384": {"id": "USC00355384", "lat": "45.2214", "lon": "-123.1622", "elev": "47.2", "state": "OR", "name": "MC MINNVILLE"}, "USC00355593": {"id": "USC00355593", "lat": "45.9428", "lon": "-118.4089", "elev": "295.7", "state": "OR", "name": "MILTON FREEWATER"}, "USC00355734": {"id": "USC00355734", "lat": "45.4825", "lon": "-120.7236", "elev": "570.0", "state": "OR", "name": "MORO"}, "USC00356426": {"id": "USC00356426", "lat": "42.6922", "lon": "-120.5403", "elev": "1328.9", "state": "OR", "name": "PAISLEY"}, "USC00356634": {"id": "USC00356634", "lat": "45.4756", "lon": "-118.8253", "elev": "524.3", "state": "OR", "name": "PILOT ROCK 1 SE"}, "USC00356883": {"id": "USC00356883", "lat": "44.3006", "lon": "-120.8406", "elev": "876.6", "state": "OR", "name": "PRINEVILLE"}, "USC00356907": {"id": "USC00356907", "lat": "42.7342", "lon": "-122.5164", "elev": "756.5", "state": "OR", "name": "PROSPECT 2 SW"}, "USC00357169": {"id": "USC00357169", "lat": "42.9506", "lon": "-123.3572", "elev": "207.3", "state": "OR", "name": "RIDDLE"}, "USC00357331": {"id": "USC00357331", "lat": "43.2131", "lon": "-123.3658", "elev": "129.5", "state": "OR", "name": "ROSEBURG KQEN"}, "USC00358466": {"id": "USC00358466", "lat": "45.1219", "lon": "-122.0700", "elev": "341.4", "state": "OR", "name": "THREE LYNX"}, "USC00358494": {"id": "USC00358494", "lat": "45.4539", "lon": "-123.8519", "elev": "3.7", "state": "OR", "name": "TILLAMOOK"}, "USC00358746": {"id": "USC00358746", "lat": "45.1986", "lon": "-117.8647", "elev": "846.4", "state": "OR", "name": "UNION"}, "USC00358797": {"id": "USC00358797", "lat": "43.9814", "lon": "-117.2439", "elev": "682.8", "state": "OR", "name": "VALE"}, "USC00358997": {"id": "USC00358997", "lat": "45.5722", "lon": "-117.5314", "elev": "890.9", "state": "OR", "name": "WALLOWA"}, "USC00361354": {"id": "USC00361354", "lat": "39.9353", "lon": "-77.6394", "elev": "195.1", "state": "PA", "name": "CHAMBERSBURG 1 ESE"}, "USC00362537": {"id": "USC00362537", "lat": "39.8050", "lon": "-77.2292", "elev": "164.6", "state": "PA", "name": "EISENHOWER NHS"}, "USC00363028": {"id": "USC00363028", "lat": "41.4003", "lon": "-79.8306", "elev": "309.4", "state": "PA", "name": "FRANKLIN"}, "USC00363526": {"id": "USC00363526", "lat": "41.4167", "lon": "-80.3667", "elev": "344.4", "state": "PA", "name": "GREENVILLE 2 NE"}, "USC00364385": {"id": "USC00364385", "lat": "40.3333", "lon": "-78.9167", "elev": "370.0", "state": "PA", "name": "JOHNSTOWN"}, "USC00364896": {"id": "USC00364896", "lat": "40.3333", "lon": "-76.4667", "elev": "137.2", "state": "PA", "name": "LEBANON 2 W"}, "USC00365915": {"id": "USC00365915", "lat": "41.8511", "lon": "-75.8583", "elev": "432.8", "state": "PA", "name": "MONTROSE"}, "USC00366233": {"id": "USC00366233", "lat": "41.0172", "lon": "-80.3614", "elev": "251.5", "state": "PA", "name": "NEW CASTLE 1 N"}, "USC00366689": {"id": "USC00366689", "lat": "40.8000", "lon": "-75.6167", "elev": "125.0", "state": "PA", "name": "PALMERTON"}, "USC00367029": {"id": "USC00367029", "lat": "41.7394", "lon": "-75.4464", "elev": "548.6", "state": "PA", "name": "PLEASANT MT 1 W"}, "USC00367322": {"id": "USC00367322", "lat": "40.4269", "lon": "-75.9319", "elev": "109.7", "state": "PA", "name": "READING 4 NNW"}, "USC00367477": {"id": "USC00367477", "lat": "41.4197", "lon": "-78.7492", "elev": "414.5", "state": "PA", "name": "RIDGWAY"}, "USC00367931": {"id": "USC00367931", "lat": "40.7831", "lon": "-76.8617", "elev": "128.0", "state": "PA", "name": "SELINSGROVE 2 S"}, "USC00368449": {"id": "USC00368449", "lat": "40.7933", "lon": "-77.8672", "elev": "356.6", "state": "PA", "name": "STATE COLLEGE"}, "USC00368596": {"id": "USC00368596", "lat": "41.0147", "lon": "-75.2069", "elev": "145.7", "state": "PA", "name": "E STROUDSBURG"}, "USC00368905": {"id": "USC00368905", "lat": "41.7511", "lon": "-76.4431", "elev": "231.6", "state": "PA", "name": "TOWANDA 1 S"}, "USC00369050": {"id": "USC00369050", "lat": "39.9150", "lon": "-79.7192", "elev": "291.4", "state": "PA", "name": "UNIONTOWN 1 NE"}, "USC00369298": {"id": "USC00369298", "lat": "41.8467", "lon": "-79.1494", "elev": "368.8", "state": "PA", "name": "WARREN"}, "USC00369408": {"id": "USC00369408", "lat": "41.7003", "lon": "-77.3872", "elev": "554.1", "state": "PA", "name": "WELLSBORO 4 SW"}, "USC00369464": {"id": "USC00369464", "lat": "39.9708", "lon": "-75.6350", "elev": "114.3", "state": "PA", "name": "W CHESTER 2 NW"}, "USC00369933": {"id": "USC00369933", "lat": "39.9167", "lon": "-76.7500", "elev": "118.9", "state": "PA", "name": "YORK 3 SSW PUMP STN"}, "USC00374266": {"id": "USC00374266", "lat": "41.4903", "lon": "-71.5431", "elev": "35.7", "state": "RI", "name": "KINGSTON"}, "USC00380074": {"id": "USC00380074", "lat": "33.4925", "lon": "-81.6958", "elev": "150.0", "state": "SC", "name": "AIKEN 5SE"}, "USC00380165": {"id": "USC00380165", "lat": "34.5283", "lon": "-82.6608", "elev": "243.8", "state": "SC", "name": "ANDERSON"}, "USC00380559": {"id": "USC00380559", "lat": "32.3953", "lon": "-80.6956", "elev": "7.6", "state": "SC", "name": "BEAUFORT WWTP"}, "USC00380764": {"id": "USC00380764", "lat": "33.3631", "lon": "-81.3292", "elev": "98.8", "state": "SC", "name": "BLACKVILLE 3 W"}, "USC00381277": {"id": "USC00381277", "lat": "34.0906", "lon": "-82.5883", "elev": "161.5", "state": "SC", "name": "CALHOUN FALLS"}, "USC00381310": {"id": "USC00381310", "lat": "34.2428", "lon": "-80.6564", "elev": "42.7", "state": "SC", "name": "CAMDEN 3 W"}, "USC00381588": {"id": "USC00381588", "lat": "34.7028", "lon": "-79.8822", "elev": "45.7", "state": "SC", "name": "CHERAW"}, "USC00381770": {"id": "USC00381770", "lat": "34.6603", "lon": "-82.8233", "elev": "243.8", "state": "SC", "name": "CLEMSON UNIV"}, "USC00381944": {"id": "USC00381944", "lat": "33.9914", "lon": "-81.0242", "elev": "74.4", "state": "SC", "name": "COLUMBIA UNIV OF SC"}, "USC00381997": {"id": "USC00381997", "lat": "33.8314", "lon": "-79.0558", "elev": "6.1", "state": "SC", "name": "CONWAY"}, "USC00382260": {"id": "USC00382260", "lat": "34.3011", "lon": "-79.8767", "elev": "45.7", "state": "SC", "name": "DARLINGTON"}, "USC00383468": {"id": "USC00383468", "lat": "33.3619", "lon": "-79.2239", "elev": "3.0", "state": "SC", "name": "GEORGETOWN 2 E"}, "USC00383754": {"id": "USC00383754", "lat": "34.1997", "lon": "-82.1711", "elev": "187.5", "state": "SC", "name": "GREENWOOD"}, "USC00384690": {"id": "USC00384690", "lat": "34.5367", "lon": "-80.5972", "elev": "138.1", "state": "SC", "name": "KERSHAW 1SW"}, "USC00384753": {"id": "USC00384753", "lat": "33.6775", "lon": "-79.8283", "elev": "22.9", "state": "SC", "name": "KINGSTREE"}, "USC00385017": {"id": "USC00385017", "lat": "34.4989", "lon": "-82.0219", "elev": "179.5", "state": "SC", "name": "LAURENS"}, "USC00385200": {"id": "USC00385200", "lat": "34.1994", "lon": "-81.4144", "elev": "216.7", "state": "SC", "name": "LITTLE MTN"}, "USC00386209": {"id": "USC00386209", "lat": "34.2917", "lon": "-81.6208", "elev": "156.4", "state": "SC", "name": "NEWBERRY"}, "USC00386527": {"id": "USC00386527", "lat": "33.4889", "lon": "-80.8742", "elev": "56.4", "state": "SC", "name": "ORANGEBURG 2"}, "USC00387631": {"id": "USC00387631", "lat": "33.9919", "lon": "-81.7714", "elev": "146.3", "state": "SC", "name": "SALUDA"}, "USC00387722": {"id": "USC00387722", "lat": "34.6350", "lon": "-81.5206", "elev": "158.5", "state": "SC", "name": "SANTUCK"}, "USC00388426": {"id": "USC00388426", "lat": "33.0367", "lon": "-80.2325", "elev": "19.8", "state": "SC", "name": "SUMMERVILLE 4W"}, "USC00388440": {"id": "USC00388440", "lat": "33.9364", "lon": "-80.3569", "elev": "53.9", "state": "SC", "name": "SUMTER"}, "USC00388887": {"id": "USC00388887", "lat": "34.7544", "lon": "-83.0750", "elev": "298.7", "state": "SC", "name": "WALHALLA"}, "USC00389327": {"id": "USC00389327", "lat": "34.3706", "lon": "-81.0825", "elev": "161.5", "state": "SC", "name": "WINNSBORO"}, "USC00389350": {"id": "USC00389350", "lat": "34.9389", "lon": "-81.0331", "elev": "198.1", "state": "SC", "name": "WINTHROP UNIV"}, "USC00389469": {"id": "USC00389469", "lat": "32.7019", "lon": "-80.8517", "elev": "13.4", "state": "SC", "name": "YEMASSEE 1 N"}, "USC00390043": {"id": "USC00390043", "lat": "43.4892", "lon": "-99.0631", "elev": "512.1", "state": "SD", "name": "ACADEMY 2NE"}, "USC00390128": {"id": "USC00390128", "lat": "43.6514", "lon": "-97.7981", "elev": "416.1", "state": "SD", "name": "ALEXANDRIA"}, "USC00391392": {"id": "USC00391392", "lat": "43.3111", "lon": "-96.5878", "elev": "401.1", "state": "SD", "name": "CANTON"}, "USC00391739": {"id": "USC00391739", "lat": "44.8817", "lon": "-97.7325", "elev": "549.9", "state": "SD", "name": "CLARK"}, "USC00391972": {"id": "USC00391972", "lat": "43.9611", "lon": "-101.8606", "elev": "723.3", "state": "SD", "name": "COTTONWOOD 2 E"}, "USC00392429": {"id": "USC00392429", "lat": "45.0469", "lon": "-101.6050", "elev": "722.7", "state": "SD", "name": "DUPREE"}, "USC00392797": {"id": "USC00392797", "lat": "45.7656", "lon": "-99.6222", "elev": "570.3", "state": "SD", "name": "EUREKA"}, "USC00392927": {"id": "USC00392927", "lat": "45.0364", "lon": "-99.1342", "elev": "486.8", "state": "SD", "name": "FAULKTON 1 NW"}, "USC00393029": {"id": "USC00393029", "lat": "44.0686", "lon": "-98.0833", "elev": "397.8", "state": "SD", "name": "FORESTBURG 4 NNE"}, "USC00393217": {"id": "USC00393217", "lat": "44.0569", "lon": "-99.0719", "elev": "524.3", "state": "SD", "name": "GANN VALLEY 4NW"}, "USC00393832": {"id": "USC00393832", "lat": "44.5222", "lon": "-99.4550", "elev": "575.5", "state": "SD", "name": "HIGHMORE 1 W"}, "USC00394007": {"id": "USC00394007", "lat": "43.4378", "lon": "-103.4739", "elev": "1085.1", "state": "SD", "name": "HOT SPRINGS"}, "USC00394037": {"id": "USC00394037", "lat": "44.0122", "lon": "-97.5317", "elev": "478.5", "state": "SD", "name": "HOWARD"}, "USC00394516": {"id": "USC00394516", "lat": "43.9025", "lon": "-99.8583", "elev": "512.4", "state": "SD", "name": "KENNEBEC"}, "USC00395456": {"id": "USC00395456", "lat": "45.1550", "lon": "-98.5825", "elev": "395.0", "state": "SD", "name": "MELLETTE 4 W"}, "USC00395481": {"id": "USC00395481", "lat": "43.2358", "lon": "-97.5714", "elev": "406.0", "state": "SD", "name": "MENNO"}, "USC00395536": {"id": "USC00395536", "lat": "45.2836", "lon": "-96.6689", "elev": "349.0", "state": "SD", "name": "MILBANK 4 NW"}, "USC00395891": {"id": "USC00395891", "lat": "43.8878", "lon": "-100.7075", "elev": "705.9", "state": "SD", "name": "MURDO"}, "USC00396170": {"id": "USC00396170", "lat": "44.4419", "lon": "-100.4172", "elev": "506.9", "state": "SD", "name": "OAHE DAM"}, "USC00396947": {"id": "USC00396947", "lat": "44.1206", "lon": "-103.2842", "elev": "1060.4", "state": "SD", "name": "RAPID CITY 4NW"}, "USC00398622": {"id": "USC00398622", "lat": "42.7625", "lon": "-96.9194", "elev": "346.6", "state": "SD", "name": "VERMILLION 2 SE"}, "USC00399442": {"id": "USC00399442", "lat": "43.4989", "lon": "-100.4814", "elev": "664.5", "state": "SD", "name": "WOOD"}, "USC00401790": {"id": "USC00401790", "lat": "36.5472", "lon": "-87.3353", "elev": "122.5", "state": "TN", "name": "CLARKSVILLE WWTP"}, "USC00402024": {"id": "USC00402024", "lat": "34.9939", "lon": "-84.3758", "elev": "442.0", "state": "TN", "name": "COPPERHILL"}, "USC00402108": {"id": "USC00402108", "lat": "35.5497", "lon": "-89.7000", "elev": "117.3", "state": "TN", "name": "COVINGTON 3 SW"}, "USC00402202": {"id": "USC00402202", "lat": "36.0147", "lon": "-85.1314", "elev": "551.7", "state": "TN", "name": "CROSSVILLE ED & RESEARCH"}, "USC00402489": {"id": "USC00402489", "lat": "36.0750", "lon": "-87.3958", "elev": "237.7", "state": "TN", "name": "DICKSON"}, "USC00402589": {"id": "USC00402589", "lat": "36.4819", "lon": "-87.8628", "elev": "144.8", "state": "TN", "name": "DOVER 1 W"}, "USC00404561": {"id": "USC00404561", "lat": "35.6214", "lon": "-88.8456", "elev": "121.9", "state": "TN", "name": "JACKSON EXP STN"}, "USC00405187": {"id": "USC00405187", "lat": "35.4139", "lon": "-86.8086", "elev": "239.9", "state": "TN", "name": "LEWISBURG EXP STN"}, "USC00405882": {"id": "USC00405882", "lat": "35.6722", "lon": "-85.7811", "elev": "286.5", "state": "TN", "name": "MC MINNVILLE"}, "USC00406371": {"id": "USC00406371", "lat": "35.9203", "lon": "-86.3728", "elev": "163.1", "state": "TN", "name": "MURFREESBORO 5 N"}, "USC00406534": {"id": "USC00406534", "lat": "35.9833", "lon": "-83.2008", "elev": "315.8", "state": "TN", "name": "NEWPORT 1 NW"}, "USC00407884": {"id": "USC00407884", "lat": "36.4161", "lon": "-82.9839", "elev": "413.0", "state": "TN", "name": "ROGERSVILLE 1 NE"}, "USC00409155": {"id": "USC00409155", "lat": "35.3453", "lon": "-86.2089", "elev": "311.5", "state": "TN", "name": "TULLAHOMA"}, "USC00409219": {"id": "USC00409219", "lat": "36.3925", "lon": "-89.0317", "elev": "106.7", "state": "TN", "name": "UNION CITY"}, "USC00409502": {"id": "USC00409502", "lat": "35.3042", "lon": "-87.7592", "elev": "228.6", "state": "TN", "name": "WAYNESBORO"}, "USC00410120": {"id": "USC00410120", "lat": "32.7047", "lon": "-99.3011", "elev": "441.4", "state": "TX", "name": "ALBANY"}, "USC00410144": {"id": "USC00410144", "lat": "27.7283", "lon": "-98.0678", "elev": "61.3", "state": "TX", "name": "ALICE"}, "USC00410174": {"id": "USC00410174", "lat": "30.3764", "lon": "-103.6600", "elev": "1356.4", "state": "TX", "name": "ALPINE"}, "USC00410493": {"id": "USC00410493", "lat": "31.7414", "lon": "-99.9764", "elev": "534.9", "state": "TX", "name": "BALLINGER 2 NW"}, "USC00410498": {"id": "USC00410498", "lat": "30.9844", "lon": "-103.7403", "elev": "981.5", "state": "TX", "name": "BALMORHEA"}, "USC00410639": {"id": "USC00410639", "lat": "28.4575", "lon": "-97.7061", "elev": "77.7", "state": "TX", "name": "BEEVILLE 5 NE"}, "USC00410832": {"id": "USC00410832", "lat": "30.0950", "lon": "-98.4142", "elev": "399.3", "state": "TX", "name": "BLANCO"}, "USC00410902": {"id": "USC00410902", "lat": "29.7986", "lon": "-98.7353", "elev": "440.4", "state": "TX", "name": "BOERNE"}, "USC00411000": {"id": "USC00411000", "lat": "35.5303", "lon": "-102.2564", "elev": "972.6", "state": "TX", "name": "BOYS RCH"}, "USC00411048": {"id": "USC00411048", "lat": "30.1592", "lon": "-96.3972", "elev": "95.4", "state": "TX", "name": "BRENHAM"}, "USC00411138": {"id": "USC00411138", "lat": "31.7383", "lon": "-98.9456", "elev": "424.9", "state": "TX", "name": "BROWNWOOD 2ENE"}, "USC00411528": {"id": "USC00411528", "lat": "28.3392", "lon": "-99.6328", "elev": "170.7", "state": "TX", "name": "CATARINA"}, "USC00411772": {"id": "USC00411772", "lat": "33.6164", "lon": "-95.0717", "elev": "132.6", "state": "TX", "name": "CLARKSVILLE 2NE"}, "USC00412019": {"id": "USC00412019", "lat": "32.1225", "lon": "-96.4867", "elev": "136.9", "state": "TX", "name": "CORSICANA"}, "USC00412121": {"id": "USC00412121", "lat": "33.6517", "lon": "-101.2450", "elev": "917.4", "state": "TX", "name": "CROSBYTON"}, "USC00412266": {"id": "USC00412266", "lat": "29.0567", "lon": "-96.2319", "elev": "21.3", "state": "TX", "name": "DANEVANG 1 W"}, "USC00412598": {"id": "USC00412598", "lat": "32.0628", "lon": "-98.3047", "elev": "447.4", "state": "TX", "name": "DUBLIN 2SE"}, "USC00412679": {"id": "USC00412679", "lat": "28.7569", "lon": "-100.4792", "elev": "247.5", "state": "TX", "name": "EAGLE PASS 3N"}, "USC00412906": {"id": "USC00412906", "lat": "27.9775", "lon": "-99.3847", "elev": "166.1", "state": "TX", "name": "ENCINAL"}, "USC00413063": {"id": "USC00413063", "lat": "27.1353", "lon": "-98.1203", "elev": "42.4", "state": "TX", "name": "FALFURRIAS"}, "USC00413183": {"id": "USC00413183", "lat": "29.6339", "lon": "-97.0644", "elev": "143.3", "state": "TX", "name": "FLATONIA 4SE"}, "USC00413280": {"id": "USC00413280", "lat": "30.9072", "lon": "-102.9153", "elev": "926.0", "state": "TX", "name": "FT STOCKTON"}, "USC00413420": {"id": "USC00413420", "lat": "33.6461", "lon": "-97.0592", "elev": "265.2", "state": "TX", "name": "GAINESVILLE 5 ENE"}, "USC00413734": {"id": "USC00413734", "lat": "33.1678", "lon": "-96.0983", "elev": "166.1", "state": "TX", "name": "GREENVILLE KGVL RADIO"}, "USC00413873": {"id": "USC00413873", "lat": "29.4706", "lon": "-96.9397", "elev": "83.8", "state": "TX", "name": "HALLETTSVILLE 2 N"}, "USC00413992": {"id": "USC00413992", "lat": "33.1644", "lon": "-99.7389", "elev": "484.6", "state": "TX", "name": "HASKELL"}, "USC00415018": {"id": "USC00415018", "lat": "31.0717", "lon": "-98.1847", "elev": "314.6", "state": "TX", "name": "LAMPASAS"}, "USC00415196": {"id": "USC00415196", "lat": "30.0592", "lon": "-94.7950", "elev": "10.7", "state": "TX", "name": "LIBERTY"}, "USC00415272": {"id": "USC00415272", "lat": "30.7425", "lon": "-98.6542", "elev": "310.9", "state": "TX", "name": "LLANO"}, "USC00415429": {"id": "USC00415429", "lat": "29.6756", "lon": "-97.6578", "elev": "121.9", "state": "TX", "name": "LULING"}, "USC00415618": {"id": "USC00415618", "lat": "32.4892", "lon": "-94.3289", "elev": "92.0", "state": "TX", "name": "MARSHALL"}, "USC00415707": {"id": "USC00415707", "lat": "31.1331", "lon": "-102.2217", "elev": "750.1", "state": "TX", "name": "MCCAMEY"}, "USC00415869": {"id": "USC00415869", "lat": "31.6181", "lon": "-96.4497", "elev": "153.3", "state": "TX", "name": "MEXIA"}, "USC00415875": {"id": "USC00415875", "lat": "35.6936", "lon": "-100.6392", "elev": "837.3", "state": "TX", "name": "MIAMI"}, "USC00416135": {"id": "USC00416135", "lat": "34.2192", "lon": "-102.7328", "elev": "1167.4", "state": "TX", "name": "MULESHOE #1"}, "USC00416276": {"id": "USC00416276", "lat": "29.6597", "lon": "-98.1636", "elev": "219.5", "state": "TX", "name": "NEW BRAUNFELS"}, "USC00416794": {"id": "USC00416794", "lat": "33.6744", "lon": "-95.5586", "elev": "165.2", "state": "TX", "name": "PARIS"}, "USC00416892": {"id": "USC00416892", "lat": "31.4167", "lon": "-103.5000", "elev": "795.5", "state": "TX", "name": "PECOS"}, "USC00417079": {"id": "USC00417079", "lat": "34.1892", "lon": "-101.7022", "elev": "1027.2", "state": "TX", "name": "PLAINVIEW"}, "USC00417336": {"id": "USC00417336", "lat": "34.2761", "lon": "-99.7578", "elev": "488.3", "state": "TX", "name": "QUANAH 2 SW"}, "USC00417622": {"id": "USC00417622", "lat": "26.3769", "lon": "-98.8117", "elev": "52.4", "state": "TX", "name": "RIO GRANDE CITY"}, "USC00418201": {"id": "USC00418201", "lat": "32.7131", "lon": "-102.6597", "elev": "1016.8", "state": "TX", "name": "SEMINOLE"}, "USC00418433": {"id": "USC00418433", "lat": "32.7100", "lon": "-100.9111", "elev": "706.8", "state": "TX", "name": "SNYDER"}, "USC00418692": {"id": "USC00418692", "lat": "36.4414", "lon": "-102.0775", "elev": "1098.2", "state": "TX", "name": "STRATFORD"}, "USC00418910": {"id": "USC00418910", "lat": "31.0781", "lon": "-97.3183", "elev": "193.5", "state": "TX", "name": "TEMPLE"}, "USC00419532": {"id": "USC00419532", "lat": "32.7483", "lon": "-97.7700", "elev": "291.1", "state": "TX", "name": "WEATHERFORD"}, "USC00420086": {"id": "USC00420086", "lat": "37.4403", "lon": "-112.4819", "elev": "2163.5", "state": "UT", "name": "ALTON"}, "USC00420738": {"id": "USC00420738", "lat": "37.6131", "lon": "-109.4847", "elev": "1838.6", "state": "UT", "name": "BLANDING"}, "USC00420788": {"id": "USC00420788", "lat": "37.2825", "lon": "-109.5575", "elev": "1316.4", "state": "UT", "name": "BLUFF"}, "USC00421731": {"id": "USC00421731", "lat": "41.5481", "lon": "-112.1106", "elev": "1289.3", "state": "UT", "name": "CORINNE"}, "USC00422101": {"id": "USC00422101", "lat": "39.2872", "lon": "-112.6519", "elev": "1399.0", "state": "UT", "name": "DESERET"}, "USC00422253": {"id": "USC00422253", "lat": "40.1703", "lon": "-110.3978", "elev": "1691.9", "state": "UT", "name": "DUCHESNE"}, "USC00422592": {"id": "USC00422592", "lat": "37.7686", "lon": "-111.5978", "elev": "1770.9", "state": "UT", "name": "ESCALANTE"}, "USC00422726": {"id": "USC00422726", "lat": "41.0203", "lon": "-111.9328", "elev": "1335.0", "state": "UT", "name": "FARMINGTON 3 NW"}, "USC00422828": {"id": "USC00422828", "lat": "38.9603", "lon": "-112.3239", "elev": "1562.7", "state": "UT", "name": "FILLMORE"}, "USC00422996": {"id": "USC00422996", "lat": "40.2842", "lon": "-109.8611", "elev": "1539.8", "state": "UT", "name": "FT DUCHESNE"}, "USC00423418": {"id": "USC00423418", "lat": "38.9906", "lon": "-110.1544", "elev": "1240.5", "state": "UT", "name": "GREEN RIVER AVIATION"}, "USC00423809": {"id": "USC00423809", "lat": "40.4917", "lon": "-111.4261", "elev": "1703.8", "state": "UT", "name": "HEBER"}, "USC00424508": {"id": "USC00424508", "lat": "37.0286", "lon": "-112.5361", "elev": "1493.5", "state": "UT", "name": "KANAB"}, "USC00424856": {"id": "USC00424856", "lat": "41.8253", "lon": "-111.3206", "elev": "1822.7", "state": "UT", "name": "LAKETOWN"}, "USC00425065": {"id": "USC00425065", "lat": "39.5608", "lon": "-111.8653", "elev": "1614.8", "state": "UT", "name": "LEVAN"}, "USC00425186": {"id": "USC00425186", "lat": "41.7456", "lon": "-111.8033", "elev": "1460.0", "state": "UT", "name": "LOGAN UTAH ST UNIV"}, "USC00425402": {"id": "USC00425402", "lat": "39.2583", "lon": "-111.6308", "elev": "1749.6", "state": "UT", "name": "MANTI"}, "USC00425477": {"id": "USC00425477", "lat": "38.4492", "lon": "-112.2239", "elev": "1781.6", "state": "UT", "name": "MARYSVALE"}, "USC00425733": {"id": "USC00425733", "lat": "38.5744", "lon": "-109.5458", "elev": "1235.4", "state": "UT", "name": "MOAB"}, "USC00425826": {"id": "USC00425826", "lat": "41.0575", "lon": "-111.6894", "elev": "1554.5", "state": "UT", "name": "MORGAN"}, "USC00426135": {"id": "USC00426135", "lat": "39.7119", "lon": "-111.8319", "elev": "1568.5", "state": "UT", "name": "NEPHI"}, "USC00426404": {"id": "USC00426404", "lat": "41.2439", "lon": "-111.9467", "elev": "1325.9", "state": "UT", "name": "OGDEN PIONEER PH"}, "USC00426601": {"id": "USC00426601", "lat": "37.8156", "lon": "-112.4389", "elev": "2026.0", "state": "UT", "name": "PANGUITCH"}, "USC00426686": {"id": "USC00426686", "lat": "37.8622", "lon": "-112.8292", "elev": "1791.6", "state": "UT", "name": "PAROWAN"}, "USC00427260": {"id": "USC00427260", "lat": "38.7617", "lon": "-112.0778", "elev": "1610.9", "state": "UT", "name": "RICHFIELD RADIO KSVC"}, "USC00427516": {"id": "USC00427516", "lat": "37.1189", "lon": "-113.6067", "elev": "870.8", "state": "UT", "name": "ST GEORGE"}, "USC00427559": {"id": "USC00427559", "lat": "38.9128", "lon": "-111.4164", "elev": "2304.3", "state": "UT", "name": "SALINA 24 E"}, "USC00427714": {"id": "USC00427714", "lat": "39.2453", "lon": "-112.1067", "elev": "1619.7", "state": "UT", "name": "SCIPIO"}, "USC00427729": {"id": "USC00427729", "lat": "39.6842", "lon": "-111.2056", "elev": "2650.8", "state": "UT", "name": "SCOFIELD-SKYLINE MINE"}, "USC00427909": {"id": "USC00427909", "lat": "40.5453", "lon": "-111.5042", "elev": "1831.8", "state": "UT", "name": "SNAKE CREEK POWERHOUSE"}, "USC00428119": {"id": "USC00428119", "lat": "40.0800", "lon": "-111.6047", "elev": "1438.7", "state": "UT", "name": "SPANISH FK PWR HOUSE"}, "USC00428705": {"id": "USC00428705", "lat": "38.9667", "lon": "-109.7167", "elev": "1554.2", "state": "UT", "name": "THOMPSON"}, "USC00428771": {"id": "USC00428771", "lat": "40.5353", "lon": "-112.3217", "elev": "1506.9", "state": "UT", "name": "TOOELE"}, "USC00428973": {"id": "USC00428973", "lat": "40.3603", "lon": "-111.8972", "elev": "1373.1", "state": "UT", "name": "UTAH LAKE LEHI"}, "USC00429111": {"id": "USC00429111", "lat": "40.4403", "lon": "-109.5356", "elev": "1629.2", "state": "UT", "name": "VERNAL"}, "USC00429595": {"id": "USC00429595", "lat": "41.5250", "lon": "-111.1494", "elev": "1924.8", "state": "UT", "name": "WOODRUFF"}, "USC00429717": {"id": "USC00429717", "lat": "37.2092", "lon": "-112.9814", "elev": "1230.8", "state": "UT", "name": "ZION NP"}, "USC00431243": {"id": "USC00431243", "lat": "43.3847", "lon": "-72.5989", "elev": "256.6", "state": "VT", "name": "CAVENDISH"}, "USC00431360": {"id": "USC00431360", "lat": "43.9833", "lon": "-72.4500", "elev": "243.8", "state": "VT", "name": "CHELSEA"}, "USC00431580": {"id": "USC00431580", "lat": "43.9572", "lon": "-73.2106", "elev": "105.2", "state": "VT", "name": "CORNWALL"}, "USC00432769": {"id": "USC00432769", "lat": "44.9094", "lon": "-72.8083", "elev": "128.0", "state": "VT", "name": "ENOSBURG FALLS"}, "USC00437054": {"id": "USC00437054", "lat": "44.4200", "lon": "-72.0194", "elev": "213.4", "state": "VT", "name": "SAINT JOHNSBURY"}, "USC00437607": {"id": "USC00437607", "lat": "44.6264", "lon": "-73.3031", "elev": "33.5", "state": "VT", "name": "S HERO"}, "USC00437612": {"id": "USC00437612", "lat": "44.0725", "lon": "-72.9736", "elev": "408.7", "state": "VT", "name": "S LINCOLN"}, "USC00440766": {"id": "USC00440766", "lat": "37.2039", "lon": "-80.4144", "elev": "641.0", "state": "VA", "name": "BLACKSBURG NWSO"}, "USC00440993": {"id": "USC00440993", "lat": "37.7092", "lon": "-78.2886", "elev": "68.6", "state": "VA", "name": "BREMO BLUFF"}, "USC00441209": {"id": "USC00441209", "lat": "37.0908", "lon": "-81.3364", "elev": "935.1", "state": "VA", "name": "BURKES GARDEN"}, "USC00441593": {"id": "USC00441593", "lat": "38.0328", "lon": "-78.5225", "elev": "264.0", "state": "VA", "name": "CHARLOTTESVILLE 2W"}, "USC00442208": {"id": "USC00442208", "lat": "38.4547", "lon": "-78.9353", "elev": "413.9", "state": "VA", "name": "DALE ENTERPRISE"}, "USC00442245": {"id": "USC00442245", "lat": "36.5628", "lon": "-79.3633", "elev": "119.5", "state": "VA", "name": "DANVILLE 2 SE"}, "USC00442941": {"id": "USC00442941", "lat": "37.3264", "lon": "-78.3864", "elev": "137.2", "state": "VA", "name": "FARMVILLE 2 N"}, "USC00443192": {"id": "USC00443192", "lat": "38.3167", "lon": "-77.4500", "elev": "27.4", "state": "VA", "name": "FREDERICKSBURG NP"}, "USC00444101": {"id": "USC00444101", "lat": "37.2992", "lon": "-77.2775", "elev": "12.2", "state": "VA", "name": "HOPEWELL"}, "USC00444128": {"id": "USC00444128", "lat": "37.9994", "lon": "-79.8322", "elev": "684.0", "state": "VA", "name": "HOT SPRINGS"}, "USC00444876": {"id": "USC00444876", "lat": "37.7767", "lon": "-79.4386", "elev": "334.4", "state": "VA", "name": "LEXINGTON"}, "USC00444909": {"id": "USC00444909", "lat": "39.1422", "lon": "-77.7094", "elev": "155.4", "state": "VA", "name": "PURCELLVILLE"}, "USC00446626": {"id": "USC00446626", "lat": "36.7381", "lon": "-82.9967", "elev": "448.1", "state": "VA", "name": "PENNINGTON GAP"}, "USC00446712": {"id": "USC00446712", "lat": "38.2322", "lon": "-78.1203", "elev": "158.5", "state": "VA", "name": "PIEDMONT RSCH STN"}, "USC00447338": {"id": "USC00447338", "lat": "36.9769", "lon": "-79.8961", "elev": "400.8", "state": "VA", "name": "ROCKY MT"}, "USC00448062": {"id": "USC00448062", "lat": "38.1692", "lon": "-79.0844", "elev": "51.5", "state": "VA", "name": "STAUNTON WTP"}, "USC00449151": {"id": "USC00449151", "lat": "37.3017", "lon": "-76.7039", "elev": "21.3", "state": "VA", "name": "WILLIAMSBURG 2 N"}, "USC00449263": {"id": "USC00449263", "lat": "38.8969", "lon": "-78.4678", "elev": "205.7", "state": "VA", "name": "WOODSTOCK 2 NE"}, "USC00450008": {"id": "USC00450008", "lat": "46.9658", "lon": "-123.8292", "elev": "3.0", "state": "WA", "name": "ABERDEEN"}, "USC00450587": {"id": "USC00450587", "lat": "48.7178", "lon": "-122.5114", "elev": "4.6", "state": "WA", "name": "BELLINGHAM 3 SSW"}, "USC00450729": {"id": "USC00450729", "lat": "48.9775", "lon": "-122.7928", "elev": "18.3", "state": "WA", "name": "BLAINE"}, "USC00450945": {"id": "USC00450945", "lat": "47.1694", "lon": "-122.0036", "elev": "208.8", "state": "WA", "name": "BUCKLEY 1 NE"}, "USC00451233": {"id": "USC00451233", "lat": "47.4144", "lon": "-121.7561", "elev": "475.5", "state": "WA", "name": "CEDAR LAKE"}, "USC00451276": {"id": "USC00451276", "lat": "46.7200", "lon": "-122.9528", "elev": "56.4", "state": "WA", "name": "CENTRALIA"}, "USC00451484": {"id": "USC00451484", "lat": "48.9672", "lon": "-122.3292", "elev": "19.5", "state": "WA", "name": "CLEARBROOK"}, "USC00451504": {"id": "USC00451504", "lat": "47.1889", "lon": "-120.9131", "elev": "579.1", "state": "WA", "name": "CLE ELUM"}, "USC00451630": {"id": "USC00451630", "lat": "48.5678", "lon": "-117.9356", "elev": "473.7", "state": "WA", "name": "COLVILLE"}, "USC00451666": {"id": "USC00451666", "lat": "48.5558", "lon": "-119.7492", "elev": "703.8", "state": "WA", "name": "CONCONULLY"}, "USC00451939": {"id": "USC00451939", "lat": "47.3706", "lon": "-123.1600", "elev": "6.4", "state": "WA", "name": "CUSHMAN POWERHOUSE #2"}, "USC00452007": {"id": "USC00452007", "lat": "47.6575", "lon": "-118.1614", "elev": "722.1", "state": "WA", "name": "DAVENPORT"}, "USC00452030": {"id": "USC00452030", "lat": "46.3153", "lon": "-118.0022", "elev": "474.6", "state": "WA", "name": "DAYTON 1 WSW"}, "USC00452505": {"id": "USC00452505", "lat": "46.9692", "lon": "-120.5400", "elev": "451.1", "state": "WA", "name": "ELLENSBURG"}, "USC00452675": {"id": "USC00452675", "lat": "47.9753", "lon": "-122.1950", "elev": "18.3", "state": "WA", "name": "EVERETT"}, "USC00452914": {"id": "USC00452914", "lat": "47.9558", "lon": "-124.3539", "elev": "106.7", "state": "WA", "name": "FORKS 1 E"}, "USC00453222": {"id": "USC00453222", "lat": "45.8081", "lon": "-120.8428", "elev": "499.9", "state": "WA", "name": "GOLDENDALE"}, "USC00454154": {"id": "USC00454154", "lat": "46.2111", "lon": "-119.1011", "elev": "118.9", "state": "WA", "name": "KENNEWICK"}, "USC00454748": {"id": "USC00454748", "lat": "46.3675", "lon": "-124.0378", "elev": "7.6", "state": "WA", "name": "LONG BEACH EXP STN"}, "USC00454764": {"id": "USC00454764", "lat": "46.7492", "lon": "-121.8120", "elev": "841.9", "state": "WA", "name": "LONGMIRE RAINIER NPS"}, "USC00454769": {"id": "USC00454769", "lat": "46.1506", "lon": "-122.9164", "elev": "3.7", "state": "WA", "name": "LONGVIEW"}, "USC00455224": {"id": "USC00455224", "lat": "47.1358", "lon": "-122.2558", "elev": "176.5", "state": "WA", "name": "MCMILLIN RSVR"}, "USC00455946": {"id": "USC00455946", "lat": "48.8994", "lon": "-117.8289", "elev": "456.3", "state": "WA", "name": "NORTHPORT"}, "USC00456039": {"id": "USC00456039", "lat": "47.3331", "lon": "-118.6961", "elev": "470.3", "state": "WA", "name": "ODESSA"}, "USC00456096": {"id": "USC00456096", "lat": "48.6117", "lon": "-122.8064", "elev": "24.4", "state": "WA", "name": "OLGA 2 SE"}, "USC00456610": {"id": "USC00456610", "lat": "46.4672", "lon": "-117.5883", "elev": "589.5", "state": "WA", "name": "POMEROY"}, "USC00456624": {"id": "USC00456624", "lat": "48.1139", "lon": "-123.4317", "elev": "27.4", "state": "WA", "name": "PORT ANGELES"}, "USC00456678": {"id": "USC00456678", "lat": "48.1161", "lon": "-122.7586", "elev": "30.5", "state": "WA", "name": "PORT TOWNSEND"}, "USC00456789": {"id": "USC00456789", "lat": "46.7603", "lon": "-117.1861", "elev": "766.6", "state": "WA", "name": "PULLMAN 2 NW"}, "USC00456914": {"id": "USC00456914", "lat": "46.6533", "lon": "-123.7300", "elev": "9.1", "state": "WA", "name": "RAYMOND 2 S"}, "USC00457059": {"id": "USC00457059", "lat": "47.1175", "lon": "-118.3714", "elev": "568.1", "state": "WA", "name": "RITZVILLE 1 SSE"}, "USC00457267": {"id": "USC00457267", "lat": "47.0933", "lon": "-117.5878", "elev": "595.0", "state": "WA", "name": "ST. JOHN"}, "USC00457507": {"id": "USC00457507", "lat": "48.4958", "lon": "-122.2355", "elev": "18.3", "state": "WA", "name": "SEDRO-WOOLLEY"}, "USC00457773": {"id": "USC00457773", "lat": "47.5414", "lon": "-121.8361", "elev": "134.1", "state": "WA", "name": "SNOQUALMIE FALLS"}, "USC00458059": {"id": "USC00458059", "lat": "48.3508", "lon": "-120.7264", "elev": "383.1", "state": "WA", "name": "STEHEKIN 4 NW"}, "USC00458207": {"id": "USC00458207", "lat": "46.3236", "lon": "-120.0103", "elev": "227.7", "state": "WA", "name": "SUNNYSIDE"}, "USC00458773": {"id": "USC00458773", "lat": "45.6778", "lon": "-122.6511", "elev": "64.0", "state": "WA", "name": "VANCOUVER 4 NNE"}, "USC00459012": {"id": "USC00459012", "lat": "47.6497", "lon": "-120.0800", "elev": "812.0", "state": "WA", "name": "WATERVILLE"}, "USC00459074": {"id": "USC00459074", "lat": "47.4289", "lon": "-120.3100", "elev": "190.8", "state": "WA", "name": "WENATCHEE"}, "USC00459238": {"id": "USC00459238", "lat": "47.7681", "lon": "-118.7239", "elev": "689.5", "state": "WA", "name": "WILBUR"}, "USC00459376": {"id": "USC00459376", "lat": "48.4742", "lon": "-120.1886", "elev": "533.1", "state": "WA", "name": "WINTHROP 1 WSW"}, "USC00461220": {"id": "USC00461220", "lat": "38.9803", "lon": "-80.2200", "elev": "443.5", "state": "WV", "name": "BUCKHANNON"}, "USC00461330": {"id": "USC00461330", "lat": "39.2047", "lon": "-81.1572", "elev": "231.6", "state": "WV", "name": "CAIRO"}, "USC00463544": {"id": "USC00463544", "lat": "38.9339", "lon": "-80.8317", "elev": "220.4", "state": "WV", "name": "GLENVILLE"}, "USC00465224": {"id": "USC00465224", "lat": "37.8567", "lon": "-80.4042", "elev": "701.0", "state": "WV", "name": "LEWISBURG 3 N"}, "USC00465626": {"id": "USC00465626", "lat": "39.5436", "lon": "-80.4647", "elev": "335.3", "state": "WV", "name": "MANNINGTON 8 WNW"}, "USC00466867": {"id": "USC00466867", "lat": "39.0736", "lon": "-79.6339", "elev": "541.0", "state": "WV", "name": "PARSONS 3 SE"}, "USC00466989": {"id": "USC00466989", "lat": "38.6789", "lon": "-80.1958", "elev": "877.8", "state": "WV", "name": "PICKENS 2 N"}, "USC00467029": {"id": "USC00467029", "lat": "37.5742", "lon": "-81.5356", "elev": "402.3", "state": "WV", "name": "PINEVILLE"}, "USC00468384": {"id": "USC00468384", "lat": "38.8008", "lon": "-81.3583", "elev": "293.8", "state": "WV", "name": "SPENCER"}, "USC00469368": {"id": "USC00469368", "lat": "40.2753", "lon": "-80.6119", "elev": "201.2", "state": "WV", "name": "WELLSBURG WTR TRMT PL"}, "USC00469610": {"id": "USC00469610", "lat": "37.6731", "lon": "-82.2761", "elev": "231.6", "state": "WV", "name": "WILLIAMSON"}, "USC00469683": {"id": "USC00469683", "lat": "38.5278", "lon": "-81.9153", "elev": "186.2", "state": "WV", "name": "WINFIELD LOCKS"}, "USC00470349": {"id": "USC00470349", "lat": "46.5831", "lon": "-90.9678", "elev": "198.1", "state": "WI", "name": "ASHLAND EXP FARM"}, "USC00470991": {"id": "USC00470991", "lat": "44.8558", "lon": "-88.9889", "elev": "329.2", "state": "WI", "name": "BOWLER"}, "USC00471078": {"id": "USC00471078", "lat": "42.6333", "lon": "-89.3867", "elev": "240.8", "state": "WI", "name": "BRODHEAD"}, "USC00472001": {"id": "USC00472001", "lat": "42.6781", "lon": "-90.1064", "elev": "283.5", "state": "WI", "name": "DARLINGTON"}, "USC00472839": {"id": "USC00472839", "lat": "43.7953", "lon": "-88.4533", "elev": "231.6", "state": "WI", "name": "FOND DU LAC"}, "USC00473405": {"id": "USC00473405", "lat": "44.1186", "lon": "-89.5358", "elev": "332.8", "state": "WI", "name": "HANCOCK EXP FARM"}, "USC00474546": {"id": "USC00474546", "lat": "42.8278", "lon": "-90.7889", "elev": "317.0", "state": "WI", "name": "LANCASTER 4 WSW"}, "USC00475017": {"id": "USC00475017", "lat": "44.0869", "lon": "-87.6522", "elev": "178.0", "state": "WI", "name": "MANITOWOC"}, "USC00475120": {"id": "USC00475120", "lat": "44.6411", "lon": "-90.1333", "elev": "377.0", "state": "WI", "name": "MARSHFIELD EXP FARM"}, "USC00475255": {"id": "USC00475255", "lat": "45.1308", "lon": "-90.3439", "elev": "448.1", "state": "WI", "name": "MEDFORD"}, "USC00475474": {"id": "USC00475474", "lat": "43.0719", "lon": "-88.0294", "elev": "221.3", "state": "WI", "name": "MILWAUKEE MT MARY CLG"}, "USC00475516": {"id": "USC00475516", "lat": "45.8864", "lon": "-89.7322", "elev": "488.0", "state": "WI", "name": "MINOCQUA"}, "USC00475808": {"id": "USC00475808", "lat": "44.5378", "lon": "-90.5350", "elev": "329.2", "state": "WI", "name": "NEILLSVILLE 3ESE"}, "USC00475932": {"id": "USC00475932", "lat": "44.3586", "lon": "-88.7189", "elev": "243.8", "state": "WI", "name": "NEW LONDON"}, "USC00476208": {"id": "USC00476208", "lat": "44.8919", "lon": "-87.9550", "elev": "201.2", "state": "WI", "name": "OCONTO 4 W"}, "USC00476330": {"id": "USC00476330", "lat": "44.0206", "lon": "-88.5578", "elev": "228.6", "state": "WI", "name": "OSHKOSH"}, "USC00476718": {"id": "USC00476718", "lat": "43.5278", "lon": "-89.4342", "elev": "236.2", "state": "WI", "name": "PORTAGE"}, "USC00476827": {"id": "USC00476827", "lat": "43.0514", "lon": "-91.1350", "elev": "200.6", "state": "WI", "name": "PRAIRIE DU CHIEN"}, "USC00476922": {"id": "USC00476922", "lat": "42.7022", "lon": "-87.7861", "elev": "181.4", "state": "WI", "name": "RACINE"}, "USC00478027": {"id": "USC00478027", "lat": "45.8236", "lon": "-91.8761", "elev": "335.3", "state": "WI", "name": "SPOONER AG RES STN"}, "USC00478110": {"id": "USC00478110", "lat": "44.9528", "lon": "-90.9269", "elev": "329.2", "state": "WI", "name": "STANLEY WWTP"}, "USC00478827": {"id": "USC00478827", "lat": "43.5594", "lon": "-90.8761", "elev": "382.5", "state": "WI", "name": "VIROQUA"}, "USC00478919": {"id": "USC00478919", "lat": "43.1742", "lon": "-88.7364", "elev": "251.5", "state": "WI", "name": "WATERTOWN"}, "USC00480140": {"id": "USC00480140", "lat": "43.7728", "lon": "-111.0339", "elev": "1962.9", "state": "WY", "name": "ALTA 1 NNW"}, "USC00480540": {"id": "USC00480540", "lat": "44.3797", "lon": "-108.0350", "elev": "1170.4", "state": "WY", "name": "BASIN"}, "USC00480552": {"id": "USC00480552", "lat": "42.6233", "lon": "-106.3567", "elev": "1841.6", "state": "WY", "name": "BATES CREEK #2"}, "USC00481730": {"id": "USC00481730", "lat": "41.7594", "lon": "-104.8222", "elev": "1616.7", "state": "WY", "name": "CHUGWATER"}, "USC00481840": {"id": "USC00481840", "lat": "44.5022", "lon": "-109.1111", "elev": "1609.3", "state": "WY", "name": "CODY"}, "USC00481905": {"id": "USC00481905", "lat": "44.8711", "lon": "-104.1533", "elev": "1060.7", "state": "WY", "name": "COLONY"}, "USC00482595": {"id": "USC00482595", "lat": "43.2336", "lon": "-108.9133", "elev": "1700.2", "state": "WY", "name": "DIVERSION DAM"}, "USC00482715": {"id": "USC00482715", "lat": "43.5397", "lon": "-109.6553", "elev": "2119.9", "state": "WY", "name": "DUBOIS"}, "USC00483100": {"id": "USC00483100", "lat": "41.2650", "lon": "-110.9508", "elev": "2080.3", "state": "WY", "name": "EVANSTON 1 E"}, "USC00484065": {"id": "USC00484065", "lat": "41.5167", "lon": "-109.4703", "elev": "1877.6", "state": "WY", "name": "GREEN RVR"}, "USC00485345": {"id": "USC00485345", "lat": "44.5622", "lon": "-110.3986", "elev": "2405.5", "state": "WY", "name": "LAKE YELLOWSTONE"}, "USC00485830": {"id": "USC00485830", "lat": "42.7506", "lon": "-104.4811", "elev": "1551.4", "state": "WY", "name": "LUSK 2 SW"}, "USC00486195": {"id": "USC00486195", "lat": "43.4131", "lon": "-106.2772", "elev": "1481.3", "state": "WY", "name": "MIDWEST"}, "USC00486440": {"id": "USC00486440", "lat": "43.8567", "lon": "-110.5889", "elev": "2074.2", "state": "WY", "name": "MORAN 5WNW"}, "USC00486660": {"id": "USC00486660", "lat": "43.8497", "lon": "-104.1886", "elev": "1345.7", "state": "WY", "name": "NEWCASTLE"}, "USC00487115": {"id": "USC00487115", "lat": "43.2458", "lon": "-108.6942", "elev": "1670.3", "state": "WY", "name": "PAVILLION"}, "USC00487240": {"id": "USC00487240", "lat": "41.1722", "lon": "-104.1583", "elev": "1578.9", "state": "WY", "name": "PINE BLUFFS 5W"}, "USC00487260": {"id": "USC00487260", "lat": "42.8744", "lon": "-109.8581", "elev": "2197.6", "state": "WY", "name": "PINEDALE"}, "USC00487388": {"id": "USC00487388", "lat": "44.7764", "lon": "-108.7592", "elev": "1332.6", "state": "WY", "name": "POWELL FLD STN"}, "USC00487760": {"id": "USC00487760", "lat": "43.0306", "lon": "-108.3744", "elev": "1510.3", "state": "WY", "name": "RIVERTON"}, "USC00487990": {"id": "USC00487990", "lat": "41.4528", "lon": "-106.8053", "elev": "2069.6", "state": "WY", "name": "SARATOGA"}, "USC00488160": {"id": "USC00488160", "lat": "44.8406", "lon": "-106.8383", "elev": "1143.0", "state": "WY", "name": "SHERIDAN FLD STN"}, "USC00488995": {"id": "USC00488995", "lat": "42.0803", "lon": "-104.2236", "elev": "1249.1", "state": "WY", "name": "TORRINGTON EXP FARM"}, "USC00489615": {"id": "USC00489615", "lat": "42.1106", "lon": "-104.9492", "elev": "1413.7", "state": "WY", "name": "WHEATLAND 4 N"}, "USC00489770": {"id": "USC00489770", "lat": "44.0114", "lon": "-107.9683", "elev": "1236.9", "state": "WY", "name": "WORLAND"}, "USC00489905": {"id": "USC00489905", "lat": "44.9767", "lon": "-110.6964", "elev": "1888.2", "state": "WY", "name": "YELLOWSTONE PARK MAMMOTH"}, "USW00003822": {"id": "USW00003822", "lat": "32.1300", "lon": "-81.2100", "elev": "14.0", "state": "GA", "name": "SAVANNAH INTL AP"}, "USW00003870": {"id": "USW00003870", "lat": "34.8831", "lon": "-82.2203", "elev": "286.5", "state": "SC", "name": "GREER"}, "USW00003959": {"id": "USW00003959", "lat": "36.7683", "lon": "-96.0261", "elev": "217.9", "state": "OK", "name": "BARTLESVILLE F P FLD"}, "USW00004725": {"id": "USW00004725", "lat": "42.1997", "lon": "-75.9850", "elev": "489.5", "state": "NY", "name": "BINGHAMTON"}, "USW00012835": {"id": "USW00012835", "lat": "26.5850", "lon": "-81.8614", "elev": "4.6", "state": "FL", "name": "FT MYERS PAGE FLD AP"}, "USW00012836": {"id": "USW00012836", "lat": "24.5550", "lon": "-81.7522", "elev": "1.2", "state": "FL", "name": "KEY WEST INTL AP"}, "USW00012921": {"id": "USW00012921", "lat": "29.5442", "lon": "-98.4839", "elev": "240.5", "state": "TX", "name": "SAN ANTONIO INTL AP"}, "USW00012924": {"id": "USW00012924", "lat": "27.7839", "lon": "-97.5108", "elev": "13.7", "state": "TX", "name": "CORPUS CHRISTI"}, "USW00012930": {"id": "USW00012930", "lat": "29.9167", "lon": "-90.1303", "elev": "6.1", "state": "LA", "name": "NEW ORLEANS AUDUBON"}, "USW00013713": {"id": "USW00013713", "lat": "35.3444", "lon": "-77.9647", "elev": "33.2", "state": "NC", "name": "GOLDSBORO 4 SE"}, "USW00013724": {"id": "USW00013724", "lat": "39.3792", "lon": "-74.4242", "elev": "3.0", "state": "NJ", "name": "ATLANTIC CITY"}, "USW00013734": {"id": "USW00013734", "lat": "39.4019", "lon": "-77.9844", "elev": "162.8", "state": "WV", "name": "MARTINSBURG E WV RGNL AP"}, "USW00013737": {"id": "USW00013737", "lat": "36.9033", "lon": "-76.1922", "elev": "9.1", "state": "VA", "name": "NORFOLK INTL AP"}, "USW00013782": {"id": "USW00013782", "lat": "32.7800", "lon": "-79.9319", "elev": "3.0", "state": "SC", "name": "CHARLESTON CITY"}, "USW00013896": {"id": "USW00013896", "lat": "34.7442", "lon": "-87.5997", "elev": "164.6", "state": "AL", "name": "MUSCLE SHOALS RGNL AP"}, "USW00013899": {"id": "USW00013899", "lat": "30.4781", "lon": "-87.1869", "elev": "34.1", "state": "FL", "name": "PENSACOLA RGNL AP"}, "USW00013970": {"id": "USW00013970", "lat": "30.5372", "lon": "-91.1469", "elev": "19.5", "state": "LA", "name": "BATON ROUGE RYAN AP"}, "USW00013976": {"id": "USW00013976", "lat": "30.2050", "lon": "-91.9875", "elev": "11.6", "state": "LA", "name": "LAFAYETTE RGNL AP"}, "USW00013980": {"id": "USW00013980", "lat": "37.1550", "lon": "-98.0283", "elev": "408.4", "state": "KS", "name": "ANTHONY"}, "USW00014733": {"id": "USW00014733", "lat": "42.9486", "lon": "-78.7369", "elev": "211.2", "state": "NY", "name": "BUFFALO"}, "USW00014735": {"id": "USW00014735", "lat": "42.7431", "lon": "-73.8092", "elev": "95.1", "state": "NY", "name": "ALBANY AP"}, "USW00014737": {"id": "USW00014737", "lat": "40.6508", "lon": "-75.4492", "elev": "118.9", "state": "PA", "name": "ALLENTOWN INTL AP"}, "USW00014742": {"id": "USW00014742", "lat": "44.4683", "lon": "-73.1500", "elev": "100.6", "state": "VT", "name": "BURLINGTON INTL AP"}, "USW00014743": {"id": "USW00014743", "lat": "44.5772", "lon": "-75.1097", "elev": "136.6", "state": "NY", "name": "CANTON 4 SE"}, "USW00014757": {"id": "USW00014757", "lat": "41.6267", "lon": "-73.8842", "elev": "50.6", "state": "NY", "name": "POUGHKEEPSIE DUTCHESS CO AP"}, "USW00014764": {"id": "USW00014764", "lat": "43.6497", "lon": "-70.3003", "elev": "13.7", "state": "ME", "name": "PORTLAND INTL JETPORT"}, "USW00014765": {"id": "USW00014765", "lat": "41.7219", "lon": "-71.4325", "elev": "18.3", "state": "RI", "name": "PROVIDENCE T F GREEN AP"}, "USW00014768": {"id": "USW00014768", "lat": "43.1167", "lon": "-77.6767", "elev": "162.5", "state": "NY", "name": "ROCHESTER GTR INTL AP"}, "USW00014771": {"id": "USW00014771", "lat": "43.1111", "lon": "-76.1039", "elev": "125.9", "state": "NY", "name": "SYRACUSE HANCOCK INTL AP"}, "USW00014778": {"id": "USW00014778", "lat": "41.2433", "lon": "-76.9217", "elev": "158.5", "state": "PA", "name": "WILLIAMSPORT"}, "USW00014804": {"id": "USW00014804", "lat": "42.6083", "lon": "-82.8183", "elev": "176.8", "state": "MI", "name": "MT CLEMENS ANG BASE"}, "USW00014860": {"id": "USW00014860", "lat": "42.0800", "lon": "-80.1825", "elev": "222.5", "state": "PA", "name": "ERIE INTL AP"}, "USW00014922": {"id": "USW00014922", "lat": "44.8831", "lon": "-93.2289", "elev": "265.8", "state": "MN", "name": "MINNEAPOLIS/ST PAUL AP"}, "USW00014924": {"id": "USW00014924", "lat": "48.9711", "lon": "-97.2417", "elev": "240.8", "state": "ND", "name": "PEMBINA"}, "USW00014929": {"id": "USW00014929", "lat": "45.4558", "lon": "-98.4131", "elev": "396.8", "state": "SD", "name": "ABERDEEN"}, "USW00014946": {"id": "USW00014946", "lat": "44.9047", "lon": "-97.1494", "elev": "532.8", "state": "SD", "name": "WATERTOWN RGNL AP"}, "USW00023009": {"id": "USW00023009", "lat": "33.3075", "lon": "-104.5083", "elev": "1112.2", "state": "NM", "name": "ROSWELL IND AIR PK"}, "USW00023044": {"id": "USW00023044", "lat": "31.8111", "lon": "-106.3758", "elev": "1194.2", "state": "TX", "name": "EL PASO INTL AP"}, "USW00023051": {"id": "USW00023051", "lat": "36.4486", "lon": "-103.1539", "elev": "1511.8", "state": "NM", "name": "CLAYTON MUNI AIR PK"}, "USW00023170": {"id": "USW00023170", "lat": "38.3706", "lon": "-110.7153", "elev": "1313.1", "state": "UT", "name": "HANKSVILLE"}, "USW00023177": {"id": "USW00023177", "lat": "37.7981", "lon": "-113.9256", "elev": "1664.2", "state": "UT", "name": "MODENA"}, "USW00023179": {"id": "USW00023179", "lat": "34.7675", "lon": "-114.6189", "elev": "271.3", "state": "CA", "name": "NEEDLES AP"}, "USW00023185": {"id": "USW00023185", "lat": "39.4839", "lon": "-119.7711", "elev": "1344.2", "state": "NV", "name": "RENO TAHOE INTL AP"}, "USW00024018": {"id": "USW00024018", "lat": "41.1519", "lon": "-104.8061", "elev": "1867.8", "state": "WY", "name": "CHEYENNE"}, "USW00024022": {"id": "USW00024022", "lat": "41.3119", "lon": "-105.6747", "elev": "2214.7", "state": "WY", "name": "LARAMIE RGNL AP"}, "USW00024025": {"id": "USW00024025", "lat": "44.3814", "lon": "-100.2856", "elev": "531.0", "state": "SD", "name": "PIERRE RGNL AP"}, "USW00024027": {"id": "USW00024027", "lat": "41.5944", "lon": "-109.0528", "elev": "2054.7", "state": "WY", "name": "ROCK SPRINGS AP"}, "USW00024037": {"id": "USW00024037", "lat": "46.4267", "lon": "-105.8825", "elev": "799.8", "state": "MT", "name": "MILES CITY F WILEY FLD"}, "USW00024119": {"id": "USW00024119", "lat": "40.6117", "lon": "-116.8917", "elev": "1373.1", "state": "NV", "name": "BATTLE MOUNTAIN 4SE"}, "USW00024121": {"id": "USW00024121", "lat": "40.8289", "lon": "-115.7886", "elev": "1533.1", "state": "NV", "name": "ELKO RGNL AP"}, "USW00024128": {"id": "USW00024128", "lat": "40.9017", "lon": "-117.8081", "elev": "1309.4", "state": "NV", "name": "WINNEMUCCA MUNI AP"}, "USW00024130": {"id": "USW00024130", "lat": "44.8428", "lon": "-117.8086", "elev": "1024.4", "state": "OR", "name": "BAKER CITY MUNI AP"}, "USW00024137": {"id": "USW00024137", "lat": "48.6033", "lon": "-112.3753", "elev": "1169.8", "state": "MT", "name": "CUT BANK MUNI AP"}, "USW00024143": {"id": "USW00024143", "lat": "47.4733", "lon": "-111.3822", "elev": "1116.8", "state": "MT", "name": "GREAT FALLS INTL AP"}, "USW00024144": {"id": "USW00024144", "lat": "46.6056", "lon": "-111.9636", "elev": "1166.8", "state": "MT", "name": "HELENA RGNL AP"}, "USW00024149": {"id": "USW00024149", "lat": "46.3747", "lon": "-117.0156", "elev": "437.7", "state": "ID", "name": "LEWISTON NEZ PERCE CO AP"}, "USW00024151": {"id": "USW00024151", "lat": "42.1492", "lon": "-112.2872", "elev": "1362.5", "state": "ID", "name": "MALAD CITY"}, "USW00024157": {"id": "USW00024157", "lat": "47.6217", "lon": "-117.5281", "elev": "717.2", "state": "WA", "name": "SPOKANE INTL AP"}, "USW00024160": {"id": "USW00024160", "lat": "46.0947", "lon": "-118.2869", "elev": "355.4", "state": "WA", "name": "WALLA WALLA RGNL AP"}, "USW00024193": {"id": "USW00024193", "lat": "40.7206", "lon": "-114.0358", "elev": "1291.4", "state": "UT", "name": "WENDOVER AP AWOS"}, "USW00024213": {"id": "USW00024213", "lat": "40.8097", "lon": "-124.1603", "elev": "6.1", "state": "CA", "name": "EUREKA WFO WOODLEY ISLAND"}, "USW00024257": {"id": "USW00024257", "lat": "40.5175", "lon": "-122.2986", "elev": "151.5", "state": "CA", "name": "REDDING MUNI AP"}, "USW00024281": {"id": "USW00024281", "lat": "47.6500", "lon": "-122.3000", "elev": "5.8", "state": "WA", "name": "SEATTLE URBAN SITE"}, "USW00024284": {"id": "USW00024284", "lat": "43.4133", "lon": "-124.2436", "elev": "5.2", "state": "OR", "name": "NORTH BEND RGNL AP"}, "USW00024285": {"id": "USW00024285", "lat": "44.6431", "lon": "-124.0556", "elev": "37.2", "state": "OR", "name": "NEWPORT"}, "USW00093193": {"id": "USW00093193", "lat": "36.7800", "lon": "-119.7194", "elev": "101.5", "state": "CA", "name": "FRESNO YOSEMITE INTL AP"}, "USW00093729": {"id": "USW00093729", "lat": "35.2325", "lon": "-75.6219", "elev": "3.4", "state": "NC", "name": "CAPE HATTERAS AP"}, "USW00093784": {"id": "USW00093784", "lat": "39.2814", "lon": "-76.6089", "elev": "6.1", "state": "MD", "name": "MD SCI CTR BALTIMORE"}, "USW00093805": {"id": "USW00093805", "lat": "30.3975", "lon": "-84.3289", "elev": "19.2", "state": "FL", "name": "TALLAHASSEE"}, "USW00093806": {"id": "USW00093806", "lat": "33.2119", "lon": "-87.6161", "elev": "45.7", "state": "AL", "name": "TUSCALOOSA MUNI AP"}, "USW00093808": {"id": "USW00093808", "lat": "36.9647", "lon": "-86.4239", "elev": "160.9", "state": "KY", "name": "BOWLING GREEN WARREN CO AP"}, "USW00093986": {"id": "USW00093986", "lat": "34.9894", "lon": "-99.0525", "elev": "474.3", "state": "OK", "name": "HOBART MUNI AP"}, "USW00094008": {"id": "USW00094008", "lat": "48.2138", "lon": "-106.6213", "elev": "696.5", "state": "MT", "name": "GLASGOW INTL AP"}, "USW00094224": {"id": "USW00094224", "lat": "46.1569", "lon": "-123.8825", "elev": "2.7", "state": "OR", "name": "ASTORIA RGNL AP"}, "USW00094728": {"id": "USW00094728", "lat": "40.7789", "lon": "-73.9692", "elev": "39.6", "state": "NY", "name": "NEW YORK CNTRL PK TWR"}, "USW00094793": {"id": "USW00094793", "lat": "41.1667", "lon": "-71.5833", "elev": "33.5", "state": "RI", "name": "BLOCK ISLAND STATE AP"}, "USW00094794": {"id": "USW00094794", "lat": "43.1450", "lon": "-75.3839", "elev": "216.7", "state": "NY", "name": "UTICA ONEIDA CO AP"}, "USW00094967": {"id": "USW00094967", "lat": "46.9006", "lon": "-95.0678", "elev": "437.1", "state": "MN", "name": "PARK RAPIDS MUNI AP"}}